id,tipoResiduo,direccion,longitud,latitud,nivelLlenado,alerta,fecha
1524047,resto,Av. De Las Suertes C.C La Gavia,-3.59929725116423,40.3671874521713,2,,2021-07-10T12:48:19.000+0200
1524088,envases,Alcala FTE.22 FLA. SN CV Virgen De Los Peligros,-3.69901132958498,40.4180932921282,0,,2021-07-11T10:29:15.000+0200
1524879,envases,Pza. Agata,-3.70887104843709,40.3466711932805,6,,2021-07-11T10:51:47.000+0200
1524328,resto,Av. De Las Águilas Junto Fla.26 (Salida Renfe Fanjul),-3.76866977166662,40.3836596644607,0,,2021-07-11T16:08:00.000+0200
1523839,resto,Av. Mendez Pelayo Frente Av. De Nazaret,-3.67651886543046,40.4112896516646,2,,2021-07-11T23:28:23.000+0200
1523902,resto,Gral. Ricardos N°107,-3.72560992448274,40.3922942816561,0,,2021-07-12T03:50:48.000+0200
1525185,resto,Av. De Las Águilas N°27,-3.76847794203488,40.3835082618016,0,,2021-07-12T04:14:37.000+0200
1525001,envases,Glorieta Rocio Durcal Metro Francos Rodríguez,-3.71176054164643,40.4572799103738,0,,2021-07-12T05:00:21.000+0200
1524667,envases,P°Castellana 162,-3.68976018706312,40.4582430494784,0,,2021-07-12T05:21:59.000+0200
1524464,envases,Plaza Rey,-3.69621153558084,40.4203056458343,0,,2021-07-12T05:23:46.000+0200
1523506,resto,Serrano 24,-3.68802588734417,40.4238569496845,6,,2021-07-12T05:26:15.000+0200
1525682,resto,Av. Monforte De Lemos CV Puerto De Maspalomas,-3.71368322053723,40.4775287734964,4,,2021-07-12T06:00:00.000+0200
1523512,envases,"Pz Colon Entrada America Española, FAROLA 58",-3.689389,40.424887,2,,2021-07-12T06:49:00.000+0200
1523954,resto,Plaza De Moncloa CV Princesa,-3.71927229055857,40.4350363086806,0,,2021-07-12T06:49:27.000+0200
1525573,resto,C° Viejo De Leganes N°128 CV Ángel Ripoll,-3.73012642911044,40.3825255440474,0,,2021-07-12T07:40:28.000+0200
1523010,envases,Virgen De La Alegría N°8-10,-3.6570799489743,40.4335217835916,4,,2021-07-12T07:40:43.000+0200
1525590,resto,Bustamante Con Juan Martin El Empecinado,-3.68823328339152,40.4005046905741,0,,2021-07-12T07:42:04.000+0200
1523823,resto,P°Castellana 40,-3.6878155742164,40.4328984540957,2,,2021-07-12T07:42:11.000+0200
1524095,resto,Boltaña (Centro De Salud Canillejas),-3.614042608,40.4443922549479,4,,2021-07-12T07:42:12.000+0200
1523009,resto,Vía Dublín (Edificio Correos),-3.61389560875373,40.4626301208749,0,,2021-07-12T07:42:19.000+0200
1524769,envases,Arroyo Bueno N° 53 CV Vado De Santiago,-3.71139498017123,40.3491603431408,4,,2021-07-12T07:42:32.000+0200
1525676,envases,Gta. Santa M.ª De La Cabeza 8 (Pasillo verde),-3.6995742470026016,40.4009611375428,0,,2021-07-12T07:42:48.000+0200
1523263,resto,Sierra De Guadalupe FTE. N°21 (Metro/Cercanias),-3.62451908584406,40.381842512523,4,,2021-07-12T07:43:07.000+0200
1525021,resto,Plaza Isabel II (Frente Calle Independencia),-3.70996626244218,40.4179248113233,2,,2021-07-12T07:43:48.000+0200
1525120,resto,"P° Vía Verde De La Gasolina SN (Metro El Capricho, Entrada Clásica)",-3.59441889865545,40.4531731327314,0,,2021-07-12T07:44:08.000+0200
1525673,resto,P ° Alberto Palacios N° 28,-3.71193334871524,40.3460648086047,2,,2021-07-12T07:44:20.000+0200
1522997,resto,Ascao N°4-6 (Biblioteca Pablo Neruda),-3.64170270732891,40.4296202135061,2,,2021-07-12T07:44:50.000+0200
1523938,envases,Fuente De Lima FTE. N°1 (Metro Aviación Española),-3.78384334122892,40.3837039758846,6,,2021-07-12T07:45:06.000+0200
1524889,resto,Av. Complutense Enteada Real Jardin Alfonso XIII,-3.72763544731662,40.4480281038676,0,,2021-07-12T07:45:13.000+0200
1524167,envases,Alcala CV Gran Vía,-3.69711764309205,40.4187450462036,4,,2021-07-12T07:45:31.000+0200
1523198,resto,Gran Vía CV Caballero De Gracia,-3.69760995722318,40.4190793616639,0,,2021-07-12T07:45:51.000+0200
1524778,envases,Fuente De La Mora N°3 (Metro Ligero),-3.66330229031167,40.4855290709064,2,,2021-07-12T07:46:41.000+0200
1525186,envases,Plaza Arturo Barea fte. Parque infantil,-3.70339047178032,40.4081129264859,6,,2021-07-12T07:46:49.000+0200
1524680,resto,Arturo Soria N°126-128 (Arturo Soria Plaza),-3.65115452236098,40.44969485523,0,,2021-07-12T07:46:53.000+0200
1524097,envases,Fuencarral 16,-3.70111169939404,40.4214034716622,4,,2021-07-12T07:47:07.000+0200
1524044,envases,P° Alberto Palacios N°25,-3.71197891146347,40.3459536867836,0,,2021-07-12T07:47:08.000+0200
1524035,resto,Oca N°41 CV Eduardo Morales,-3.73731614556573,40.3893451175299,0,,2021-07-12T07:47:47.000+0200
1524804,envases,Mayor 4,-3.70507936134359,40.4165407572671,0,,2021-07-12T07:47:52.000+0200
1524440,resto,P°Extremadura N°113-115,-3.7355656655316,40.4109463596001,6,,2021-07-12T07:47:58.000+0200
1524915,resto,C° Viejo De Leganes N°124 CV Julio Antonio,-3.72988995609932,40.3828535982445,0,,2021-07-12T07:48:03.000+0200
1523844,envases,Av. De Mendez Pelayo (Entrada/Salida Retiro Mariano De Cavia),-3.67851371743189,40.4082842962322,0,,2021-07-12T07:48:12.000+0200
1523874,envases,Reina Cristina,-3.6852107554538,40.4063325162703,0,,2021-07-12T07:48:22.000+0200
1523279,envases,Congosto FTE. N°46,-3.61883198536354,40.3724862589078,0,,2021-07-12T07:48:29.000+0200
1523208,resto,Montera 24,-3.7023681358205,40.4183807492332,0,,2021-07-12T07:48:42.000+0200
1525227,envases,Bronce 1 (Salida Meteo Planetario),-3.688753,40.393068,4,,2021-07-12T07:49:52.000+0200
1524132,envases,Serrano 47,-3.68724633992509,40.429380006891,0,,2021-07-12T07:49:59.000+0200
1523308,envases,Príncipe De Vergara 144,-3.67802999973699,40.4461017516396,6,,2021-07-12T07:50:19.000+0200
1524988,resto,Hacienda De Pavones N°348,-3.63366612839043,40.4000564596525,4,,2021-07-12T07:50:55.000+0200
1524459,envases,Gran Vía73,-3.71064790712469,40.4231576302164,0,,2021-07-12T07:51:12.000+0200
1525541,resto,Garcia De Paredes 37,-3.69775389541734,40.4367443286883,4,,2021-07-12T07:51:19.000+0200
1524306,resto,Plaza Cristo Rey CV Doctor Jimenez Diaz,-3.71815495529182,40.4395647087759,4,,2021-07-12T07:51:25.000+0200
1525150,resto,Retama 8 (Zona Entrada ECI),-3.67461852241145,40.3952602393081,2,,2021-07-12T07:51:26.000+0200
1524079,envases,Hacienda De Pavones Entre Fla.1-2 (Carrefour),-3.65066003779765,40.4055026234065,4,,2021-07-12T07:52:10.000+0200
1524822,resto,Alcalá 18,-3.6993261665394,40.417760453734,2,,2021-07-12T07:52:28.000+0200
1523930,envases,P° Alberto Palacios N°31 CV Oasis,-3.71241007595026,40.3454093711829,0,,2021-07-12T07:52:32.000+0200
1525039,envases,Orense Entre N°14 Y N°16,-3.69515572112029,40.4492965916002,6,,2021-07-12T07:53:26.000+0200
1524133,resto,Plaza Andrés Segovia,-3.67783548774688,40.4454515637791,6,,2021-07-12T07:53:39.000+0200
1524102,resto,Alcala N°31,-3.698302,40.418344,0,,2021-07-12T07:53:53.000+0200
1525553,resto,Castrogeriz N°7 CV Utebo,-3.73895790586518,40.3871059193156,2,,2021-07-12T07:53:55.000+0200
1525078,resto,Paseo De Las Delicias 78 (Salida Metro),-3.69443527765075,40.3985178005832,2,,2021-07-12T07:54:48.000+0200
1523265,resto,Alcala FTE.22 FLA. SN CV Virgen De Los Peligros,-3.69902683554818,40.4180848560054,0,,2021-07-12T07:55:11.000+0200
1525068,envases,Av. Complutense Entrada Parque De Las Ciencias,-3.72734219586271,40.4500572278672,0,,2021-07-12T07:56:36.000+0200
1523584,resto,Enrique Garcia Alvarez Biblioteca,-3.61414254751274,40.3810052295812,0,,2021-07-12T07:56:59.000+0200
1522710,envases,Alcalá CV Av. Institución Libre Enseñanza,-3.63826355079394,40.4377219407492,0,,2021-07-12T07:57:16.000+0200
1525153,envases,Acanto 2 (Cines Cinesa),-3.6751152041408,40.3966845558416,0,,2021-07-12T07:58:28.000+0200
1524178,resto,Oliva De Plasencia FTE. N°4,-3.77916004327831,40.3785363201094,2,,2021-07-12T07:58:37.000+0200
1522882,resto,Av. Marqués De Corbera N°54-56 (Metro La Elipa),-3.65095779563912,40.4262552029435,0,,2021-07-12T07:58:41.000+0200
1524026,envases,P° Alberto Palacios N° 2-4,-3.70935268202131,40.3465514404075,0,,2021-07-12T07:59:05.000+0200
1524389,envases,Juan José Martinez Seco CV María Martínez Oviol,-3.69167509280897,40.3516409465949,2,,2021-07-12T07:59:09.000+0200
1523897,resto,Ctra. Boadilla CV Sanchidrian (Parada Bus),-3.774506987655,40.3968763696881,2,,2021-07-12T07:59:29.000+0200
1525690,envases,Oca N°23-25 (Mercadona),-3.73563621482438,40.3896621175349,0,,2021-07-12T08:00:20.000+0200
1524076,envases,Bulevar Indalecio Prieto Biblioteca,-3.621367511698,40.3997776995225,2,,2021-07-12T08:04:50.000+0200
1523273,resto,Congosto FTE. N°46,-3.61879005593572,40.37250197718,2,,2021-07-12T08:46:28.000+0200
1524908,envases,Marcelo Usera N°72 CV Los Ferroviarios,-3.70509320439576,40.3859604732775,6,,2021-07-12T08:49:46.000+0200
1525603,resto,"Gta. Embajadores 6 (Metro Embajadores, Intercambiador)",-3.70252713879576,40.40455462,0,,2021-07-12T08:53:11.000+0200
1523817,resto,Doctor Arce (Plaza Iglesia Santa Gema),-3.6806985552981,40.447513726316,4,,2021-07-12T09:10:41.000+0200
1525214,resto,Plaza Arturo Barea fte. Parque infantil,-3.70341221020074,40.4081044518515,0,,2021-07-12T09:31:12.000+0200
1523863,resto,Conde De Peñalver 19,-3.67570123812174,40.4263989682694,2,,2021-07-12T09:31:42.000+0200
1524278,resto,Arenal 2 FTE. 1 (Local Coimbra),-3.70478805928548,40.416915199625,0,,2021-07-12T09:56:46.000+0200
1524081,envases,Marroquina Posterior N°11 (Galeria Efe),-3.65061125431808,40.4076127014687,4,,2021-07-12T09:58:17.000+0200
1523570,resto,Av. Mendez Pelayo Entrada Retiro Frente A Sainz De Baranda,-3.67858484575632,40.4171148370232,2,,2021-07-12T10:07:14.000+0200
1524958,envases,P° Alberto Palacios N°17,-3.71115726866163,40.346031443683,6,,2021-07-12T10:08:40.000+0200
1524883,resto,Plaza De Lavapies Junto Árbol,-3.70109108255239,40.4088467543701,0,,2021-07-12T10:20:43.000+0200
1525716,envases,Gral. Ricardos N°53 CV Sallaberry,-3.72091121949129,40.3948670308571,4,,2021-07-12T10:27:34.000+0200
1525679,resto,Calle Alberto aguilera Con Calle Gaztambide (Metro),-3.71553073616369,40.4306759115417,0,,2021-07-12T10:38:19.000+0200
1524039,envases,Arroyo Belincoso N°13,-3.6527802455119,40.4098505194119,0,,2021-07-12T10:38:39.000+0200
1523964,resto,Mendez Alavro FTE. Vips,-3.6779483971291,40.3931066955099,6,,2021-07-12T10:39:09.000+0200
1523004,envases,Ascao N°4-6 (Biblioteca Pablo Neruda),-3.64171514922409,40.4296165687567,0,,2021-07-12T10:41:32.000+0200
1525119,envases,Av. Monasterio De Silos Junto Fla. 79 (Metro Montecarmelo,-3.69579203180187,40.5053194176158,8,LLENA,2021-07-12T10:43:04.000+0200
1525045,resto,Embajadores 39,-3.70425049808944,40.4079050812189,2,,2021-07-12T10:47:09.000+0200
1525145,resto,Glorieta Reales Academias FTE. P° De La Vaguada,-3.70467429675095,40.4813692431574,0,,2021-07-12T11:19:03.000+0200
1523842,resto,O'Donnel (Frente Hospital Materno Infantil),-3.67184754736749,40.421233953869,4,,2021-07-12T11:22:12.000+0200
1524850,envases,Plaza De Cuzco Salida Metro Cuzco,-3.6904475834963,40.4583283317663,0,,2021-07-12T11:28:42.000+0200
1523926,resto,Bulevar José Prat C.C Valdebernardo,-3.61878815224706,40.3973822465025,0,,2021-07-12T11:37:45.000+0200
1523239,resto,Av. Complutense FTE. Instalaciones Deportivas,-3.72926577034055,40.450758138745,0,,2021-07-12T11:42:17.000+0200
1525108,resto,Arganda 12 (Biblioteca),-3.70811430374392,40.4002973604806,2,,2021-07-12T11:44:39.000+0200
1524074,resto,Av. Talgo Estacion Aravaca,-3.78563760243222,40.4482393157129,4,,2021-07-12T11:50:25.000+0200
1524157,envases,Gran Vía 27,-3.70280612556066,40.4200108849301,2,,2021-07-12T11:51:12.000+0200
1525709,resto,C° Viejo De Leganes CV Felix Lopez (Mercadona),-3.72878192267772,40.384534174765,2,,2021-07-12T11:55:02.000+0200
1525223,envases,Av. De Las Águilas Fte. N°110,-3.78059580459516,40.3813017220725,0,,2021-07-12T11:55:57.000+0200
1525081,resto,Orense 25,-3.695223,40.451291,2,,2021-07-12T11:58:23.000+0200
1525688,envases,Gta. Valle Del Oro CV Calle Valle Del Oro,-3.73053591436914,40.3883925505399,0,,2021-07-12T12:03:24.000+0200
1524668,envases,Manuel Machado N°14 Alcampo,-3.65954178346868,40.4118704320203,6,,2021-07-12T12:04:46.000+0200
1525730,resto,Plaza Mayor De Ciudad Pegaso Junto Fla.15,-3.59552508766165,40.4469572021404,0,,2021-07-12T12:05:29.000+0200
1524981,envases,Gral. Ricardos N° 93 CV C° Viejos De Leganes,-3.72369223544967,40.3932740632457,0,,2021-07-12T12:08:26.000+0200
1524099,resto,Plaza Sta. Soledad Torres Acosta Fte. Silva 25,-3.7056656239635,40.4217330414949,0,,2021-07-12T12:14:07.000+0200
1525556,resto,Esteban Mora Mercado San Pascual,-3.65426053428738,40.4386467521916,0,,2021-07-12T12:16:23.000+0200
1525118,resto,Camino De Ganapanes Junto Fla. 58,-3.71614928680082,40.4760714285701,0,,2021-07-12T12:17:54.000+0200
1525731,resto,Av. Monforte De  Lemos CV Av. Betanzos,-3.7119745661837,40.478004117432,4,,2021-07-12T12:19:32.000+0200
1525580,envases,Avda. Oporto N°53 CV C° Viejo De Leganes,-3.7278083994833,40.3861814556916,0,,2021-07-12T12:25:16.000+0200
1523602,envases,Av. De Las Suertes C.C La Gavia,-3.59932384504268,40.3671992334631,0,,2021-07-12T12:26:39.000+0200
1524136,envases,Plaza Dos De Mayo,-3.703766500626,40.4268108830068,0,,2021-07-12T12:27:14.000+0200
1524782,resto,Ayacucho N°6,-3.64063315708802,40.469825617197,0,,2021-07-12T12:30:53.000+0200
1523913,resto,C° De Vinateros FTE. N°45,-3.65526122816234,40.4105301287946,2,ERROR,2021-07-12T12:38:19.000+0200
1524380,resto,Martínez De La Riva N°4 (Mercado Puente De Vallecas),-3.66763850043316,40.3952387396267,6,,2021-07-12T12:41:54.000+0200
1525719,resto,Av. Europa Puerta Carrefour Express,-3.78802305061991,40.4455438815199,2,,2021-07-12T12:45:15.000+0200
1524825,resto,Mercado San Miguel (Frente Taste Gallery),-3.70936069360822,40.4153829184771,2,,2021-07-12T12:49:27.000+0200
1524818,resto,Plaza De Armería Entre Palacio Y Catedral,-3.71496900574479,40.4165660394139,2,,2021-07-12T12:53:38.000+0200
1524838,resto,Preciados Stradivarius,-3.70461056124024,40.4180137295615,2,,2021-07-12T12:55:58.000+0200
1525112,envases,Dulce Chacon (Cercanías Fuente De La Mora),-3.66318431767719,40.4846442321576,0,,2021-07-12T13:00:05.000+0200
1524134,envases,Fuencarral FTE. 42,-3.70074955837471,40.4229472896978,0,,2021-07-12T13:02:29.000+0200
1525722,envases,Av. Monforte De Lemos CV Ginzo De Limia (Puerta La Vaguada),-3.70469568361937,40.4795337241761,2,,2021-07-12T13:05:54.000+0200
1523466,resto,Marqués De Zafra FTE. 28,-3.66472331036181,40.4261196672247,8,LLENA,2021-07-12T13:06:54.000+0200
1523213,envases,Av. América 9,-3.67669733168759,40.4381255618405,0,,2021-07-12T13:11:40.000+0200
1524094,envases,Av. De Portugal CV Turismundo,-3.73545103846239,40.4121611858158,0,,2021-07-12T13:11:42.000+0200
1525621,envases,Princesa De Austria CV Pza. Elíptica,-3.71802029570206,40.3847856360413,6,,2021-07-12T13:14:52.000+0200
1525240,resto,P° De La Florida Estacion Príncipe Pio,-3.720512,40.421132,4,,2021-07-12T13:15:43.000+0200
1524751,resto,Alcalá CV Josefa Valcarcel (Metro Canillejas),-3.60929243112922,40.4490464228906,0,,2021-07-12T13:16:21.000+0200
1524918,resto,Pza. Agata FTE. N°4,-3.7082831444205,40.3463112848013,0,,2021-07-12T13:17:01.000+0200
1524473,resto,Francos Rodríguez CV Doctor Federico Rubio Y Gali,-3.71289555764685,40.4576423793707,0,,2021-07-12T13:17:18.000+0200
1525570,resto,Islas Cíes N°19,-3.71837820374322,40.4801947967517,8,LLENA,2021-07-12T13:17:26.000+0200
1524948,resto,Plaza Carlos V N.11,-3.69248033824019,40.4090081560953,2,,2021-07-12T13:17:54.000+0200
1524310,envases,Plaza Antón Martín N°48,-3.69957533831789,40.4124349863091,0,,2021-07-12T13:17:56.000+0200
1524172,resto,Pza. Goytisolo Frente Al 5,-3.69398362909878,40.4088835358791,4,,2021-07-12T13:17:57.000+0200
1524126,envases,Alcala CV P° Prado (Banco España),-3.69395703683781,40.419044000082,0,,2021-07-12T13:17:59.000+0200
1525638,resto,Calderilla N°19 CV Real,-3.74014477162996,40.3630090682074,2,,2021-07-12T13:18:04.000+0200
1525625,resto,"Av. Capital De España, Madrid (Ifema Palacio Municipal)",-3.61616657529453,40.4621842154023,6,,2021-07-12T13:18:22.000+0200
1524901,resto,Santillana Del Mar (Metro Alto Del Arenal),-3.64543102769897,40.3902265433325,4,,2021-07-12T13:18:22.000+0200
1524334,resto,Juan José Martinez Seco CV María Martínez Oviol,-3.69166734141391,40.3516445677799,0,,2021-07-12T13:19:01.000+0200
1525212,resto,Jordan CV Olavide,-3.70161845872004,40.4330231198071,4,,2021-07-12T13:19:02.000+0200
1524765,resto,Av. Cardenal Herrera Oria N °242,-3.71786478981569,40.4824004516047,4,,2021-07-12T13:19:11.000+0200
1525203,envases,Carmen CV Mesonero De Romanos,-3.70502566689236,40.4190153095776,0,,2021-07-12T13:19:12.000+0200
1525630,resto,Plaza Mayor De Ciudad Pegaso (Centro De Mayores),-3.59562266145599,40.4474072084194,0,,2021-07-12T13:19:15.000+0200
1524032,resto,Arroyo Belincoso N°26,-3.65257216968327,40.4099386972634,4,,2021-07-12T13:19:28.000+0200
1524101,resto,Gran Via 34 Junto Semáforo,-3.70411945990593,40.4202662874747,0,,2021-07-12T13:19:33.000+0200
1524138,resto,Paseo Infanta Isabel 13 Boca De Metro (Frente Hotel Only You),-3.68822803419492,40.4070512299243,0,,2021-07-12T13:19:43.000+0200
1523832,resto,Paseo Del Prado (Plaza De La Lealtad),-3.69347053343672,40.4164021142803,0,,2021-07-12T13:19:44.000+0200
1525154,envases,Av. De Las Águilas N°27,-3.76851838008406,40.3835008416563,2,,2021-07-12T13:19:49.000+0200
1523218,resto,Mayor CV Esparteros,-3.70512045259767,40.416443968471,0,,2021-07-12T13:19:52.000+0200
1524350,resto,Av. San Diego (Centro De Salud),-3.66409268938665,40.3824999456527,2,,2021-07-12T13:20:03.000+0200
1524018,envases,San Cipriano N°44 (Metro San Cipriano),-3.60410598334786,40.4039349217123,0,,2021-07-12T13:20:03.000+0200
1524869,resto,Plaza De Santa Cruz,-3.705534,40.415138,4,,2021-07-12T13:20:16.000+0200
1523935,resto,Narváez Con Doctor Castelo,-3.67601686314493,40.4202259679703,4,,2021-07-12T13:20:40.000+0200
1523533,envases,Plaza De Santa Ana FTE.10,-3.70093432867288,40.4146749950325,0,,2021-07-12T13:20:42.000+0200
1524171,envases,Gran Via 8 CV Víctor Hugo,-3.69831060728891,40.4194285087873,0,,2021-07-12T13:20:46.000+0200
1524041,envases,Glorieta Mar De Cristal N°13 (C.C Gran Via),-3.63881368977686,40.4695103218164,4,,2021-07-12T13:20:54.000+0200
1523501,resto,Princesa CV Alberto Aguilera,-3.7159166524352,40.4302992913521,0,,2021-07-12T13:20:56.000+0200
1523546,resto,Plaza Guardia De Cors Ftr. Conde Duque,-3.71055881728114,40.4271983022642,0,,2021-07-12T13:21:01.000+0200
1524091,resto,Gral. Ricardos N°131,-3.72821737277479,40.3907512493639,0,,2021-07-12T13:21:05.000+0200
1525560,envases,Orense 18,-3.69504613659648,40.4504711909619,0,,2021-07-12T13:21:15.000+0200
1525576,resto,Doctor Esquerdo (Hospital Beata María Ana),-3.6690745996442,40.4179778805303,0,,2021-07-12T13:21:33.000+0200
1524184,resto,Antonio Machado FTE. N°28 Próxima Fla.69,-3.71953228002531,40.4680146326177,0,,2021-07-12T13:21:43.000+0200
1525031,resto,Senda Del Infante Fla.23,-3.72019187836551,40.4890237058616,6,,2021-07-12T13:21:44.000+0200
1523352,resto,Pz Colón Entrada Parking,-3.689373,40.424889,0,,2021-07-12T13:21:51.000+0200
1524034,envases,Moguer Metro Francos Rodríguez,-3.71283990588031,40.4565556038605,0,,2021-07-12T13:21:59.000+0200
1524455,resto,Alcala CV P° Prado (Banco España),-3.69394604776875,40.4190369155646,0,,2021-07-12T13:22:12.000+0200
1524672,resto,P° Extremadura N° 154,-3.7383722233988,40.4100930016124,4,,2021-07-12T13:22:13.000+0200
1524986,resto,Orense Entre N°14 Y N°16,-3.69515573340087,40.4492977834164,6,,2021-07-12T13:22:14.000+0200
1524858,envases,Fuencarral 6 Fla. 6,-3.70143042725259,40.4205655403031,0,,2021-07-12T13:22:21.000+0200
1523924,envases,Av. De Las Águilas Junto Fla. 26 (Salida Renfe Fanjul),-3.7686511517764,40.3836669396326,0,,2021-07-12T13:22:27.000+0200
1523280,resto,Plaza Cardenal Cisneros CV Av. Complutense,-3.72623331880275,40.4402141574468,0,,2021-07-12T13:22:32.000+0200
1524819,envases,Marques Viudo de Pontejos FTE.1 CV Plaza Marques De Pontejos,-3.70447030483115,40.4157520155949,2,,2021-07-12T13:22:35.000+0200
1523588,resto,Jacometrezo 1,-3.70624484457935,40.4201097089471,2,,2021-07-12T13:22:37.000+0200
1524671,resto,Alberique CV Amposta (Metro Simancas),-3.62293162379571,40.4275839129406,2,,2021-07-12T13:22:39.000+0200
1523551,resto,Plaza De La Encarnación Fla.4,-3.71118935540156,40.41960505165,2,,2021-07-12T13:22:52.000+0200
1524123,resto,Gran Vía 44 Junto Semáforo,-3.70539913261126,40.420358599775,2,,2021-07-12T13:22:55.000+0200
1525658,resto,Alicante 14,-3.69136839241268,40.3944442765981,0,,2021-07-12T13:23:03.000+0200
1524780,resto,P°Castellana 280 Semiesq. Manuel Caldeiro,-3.68617139605814,40.4763289759879,0,,2021-07-12T13:23:03.000+0200
1523234,resto,P° Federico Garcia Lorca N°3,-3.62116037990032,40.3794684184114,4,,2021-07-12T13:23:09.000+0200
1524830,resto,Carmen 1,-3.70365276686124,40.4173062566573,4,,2021-07-12T13:23:10.000+0200
1523824,envases,Plaza Don Antonio De San Andrés N°17 (Junta Municipal Vicalvaro),-3.60578086198483,40.4022361442429,0,,2021-07-12T13:23:10.000+0200
1525087,resto,Preciados Entrada Principal De El Corte Inglés,-3.7043829056651,40.4174913104175,0,,2021-07-12T13:23:11.000+0200
1525532,resto,Gta. Valle Del Oro FTE. N°3,-3.731056072851,40.3883523169613,0,,2021-07-12T13:23:19.000+0200
1524152,resto,Paseo Acacias 25 (Metro Acacias),-3.70660148522827,40.4038117358749,0,,2021-07-12T13:23:19.000+0200
1525548,envases,"Palos De La Frontera (Polideportivo Integrado, Salida Por Palos De La Frontera)",-3.69528291248507,40.4030460733701,4,,2021-07-12T13:23:26.000+0200
1525591,resto,Juan José Martínez Seco CV Sta. Petronilla,-3.69234295252361,40.3514450648355,0,,2021-07-12T13:23:26.000+0200
1525701,resto,Av. Monforte De Lemos Junto Fla.226,-3.71455519795898,40.4773374627954,2,,2021-07-12T13:23:31.000+0200
1523872,resto,Plaza Callao (Junto Salida Metro),-3.70575874480713,40.4200018382516,2,,2021-07-12T13:23:38.000+0200
1525255,resto,P° Polideportivo (Centro Deportivo),-3.6031840858282,40.4089287330955,2,,2021-07-12T13:23:55.000+0200
1525674,envases,Glorieta Reales Academias FTE. P° De La Vaguada,-3.70466500666168,40.4813764501974,2,,2021-07-12T13:23:59.000+0200
1523828,envases,Av. Complutense FTE. Instalaciones Deportivas,-3.72924551608432,40.4507606503007,0,,2021-07-12T13:24:31.000+0200
1523960,resto,P° Alberto Palacios N°35 CV Arenas,-3.71275179273832,40.3450211112231,2,,2021-07-12T13:24:41.000+0200
1524961,resto,Antonio Lopez °111 (Plaza Rio 2),-3.701871248416,40.3904449048924,2,ERROR,2021-07-12T13:24:50.000+0200
1524715,resto,Doctor Reinosa CV Alfonso Rodriguez Castelao,-3.73240965214766,40.4813426374808,8,LLENA,2021-07-12T13:24:51.000+0200
1524420,envases,Hacienda De Pavones N°215,-3.62925379967527,40.3992274932313,0,,2021-07-12T13:24:51.000+0200
1523535,envases,Carmen Gourmet Experience FTE. Fnac,-3.70512021440114,40.4192590572037,4,,2021-07-12T13:24:57.000+0200
1525094,resto,José Del Hierro N°10-12,-3.64853065233803,40.437200349326,2,,2021-07-12T13:25:00.000+0200
1523896,resto,Plaza Isabel II (Frente Calle Arrieta Junto Fla.25),-3.70937027707456,40.4182536778651,2,,2021-07-12T13:25:05.000+0200
1524992,envases,Raimundo Fernández Villaverde (Fla.80) Intercambiador,-3.69233369489969,40.4464221782527,6,,2021-07-12T13:25:08.000+0200
1523485,envases,Alcala 237 (Pz Toros) Metro,-3.66331440762209,40.4310150760707,0,,2021-07-12T13:25:09.000+0200
1525744,envases,Plaza Carlos Trías Bertrán 4,-3.69424646172014,40.4510569395695,6,,2021-07-12T13:25:13.000+0200
1524311,envases,Peña Prieta N°2,-3.66889276163793,40.3983669394361,2,,2021-07-12T13:25:14.000+0200
1523915,resto,Av. Complutense Facultad De Derecho,-3.72929390839132,40.4498974709387,2,,2021-07-12T13:25:20.000+0200
1524991,resto,Glorieta De Quevedo 7/Bravo Murillo (Al Lado De Cabina),-3.70422595477076,40.4338438534786,4,,2021-07-12T13:25:24.000+0200
1524484,resto,Mayor 33 (The Souvenirs Shop),-3.70773270294252,40.4161103864163,0,,2021-07-12T13:25:29.000+0200
1525655,resto,P°Castellana 220 Darsena,-3.68862361444895,40.4677252147747,0,,2021-07-12T13:25:35.000+0200
1524920,envases,Avenida Ciudad De Barcelona Salida Ave,-3.68942240186552,40.4068239365797,0,ERROR,2021-07-12T13:25:36.000+0200
1524064,resto,Rafael De Leon N°10,-3.60038053076326,40.3660628043318,0,,2021-07-12T13:25:38.000+0200
1523007,envases,Bahía De Gando SN (Centro Comercial),-3.59281879862065,40.4651602440617,6,,2021-07-12T13:25:39.000+0200
1524921,resto,Calle Isaac Peral Con calle Francisco De Sales (FTE. Clinico),-3.71749540106608,40.4396668528447,2,,2021-07-12T13:25:42.000+0200
1525650,envases,Retama 8 (Zona Entra ECI),-3.67462025965834,40.3952781067998,0,,2021-07-12T13:25:50.000+0200
1523319,envases,Plaza Del Emperador Carlos V(Salida Arriba E.A.),-3.69261436517504,40.4077857321349,4,,2021-07-12T13:25:54.000+0200
1525099,resto,José Del Hierro FTE. Florencio Llorente,-3.65286507286996,40.4350783460983,0,,2021-07-12T13:25:58.000+0200
1524726,resto,Av. Monasterio De Silos Junto Fla.79 (Metro Montecarmelo),-3.69576422510783,40.5053481883215,2,,2021-07-12T13:25:59.000+0200
1523195,resto,Pz Cibeles 4,-3.69225596117368,40.4196710443525,0,,2021-07-12T13:26:03.000+0200
1525561,resto,Gral. Ricardos N°93 CV C° Viejo De Leganes,-3.7236967447086,40.3932585412213,0,,2021-07-12T13:26:04.000+0200
1524976,resto,P° Castellana Salida Boca De Metro De Nuevos Ministerios Median (Entre Boca E Isla),-3.69151444109016,40.4465498395387,2,,2021-07-12T13:26:19.000+0200
1524859,resto,Plaza Nelson Mandela Junto Fla.14 Y Árbol,-3.7033831055847,40.4097267029012,2,,2021-07-12T13:26:28.000+0200
1525620,resto,Canta la piedra FTE. Mon Leon,-3.65549732152886,40.3925480856812,0,,2021-07-12T13:26:29.000+0200
1525635,resto,Javier De Miguel (Centro De Mayores),-3.66347879782422,40.3887120520935,2,,2021-07-12T13:26:32.000+0200
1523464,envases,Av. Mendez Pelayo Entrada Retiro Con O'Donnel,-3.68007268592213,40.4213972575303,0,,2021-07-12T13:26:41.000+0200
1524122,envases,Gran Vía 13,-3.69983088318854,40.4197178669105,0,,2021-07-12T13:26:45.000+0200
1524853,resto,Ginzo de Limia CV Valencia de Don Juan (Centro De Salud Ciudad De Los Periodistas),-3.7074615881982,40.4846132719353,0,,2021-07-12T13:26:45.000+0200
1524430,resto,Plaza Armeria Entre Catedral Y Palacio Fla.4,-3.71367537346158,40.4164751109182,0,,2021-07-12T13:26:47.000+0200
1523831,envases,O'Donnel (Frente Hospital Materno Infantil),-3.67186004533856,40.4212362650344,2,,2021-07-12T13:26:48.000+0200
1524169,resto,Plaza De Santa Ana Fla.42,-3.7003423126807,40.4147238720027,6,,2021-07-12T13:26:48.000+0200
1524293,resto,Av. Albufera (Metro Alto Del Arenal),-3.64563879576688,40.3896787976794,4,,2021-07-12T13:26:51.000+0200
1523555,envases,"Puerta Del Sol (Entre Carmen Y Preciados, Sephora)",-3.70372331303361,40.4170909246988,0,,2021-07-12T13:27:01.000+0200
1523878,resto,Av. América 9,-3.67672370402111,40.438111105648,0,,2021-07-12T13:27:04.000+0200
1525016,envases,Marcelo Usera / Pza. Julian Marias,-3.70743506918362,40.3855933875761,0,,2021-07-12T13:27:06.000+0200
1524984,envases,Pza. Distrito De Latina (Guareña FTE. N°3),-3.76493376493548,40.385574676882,0,,2021-07-12T13:27:09.000+0200
1525711,resto,Gta. Embajadores 3 (Metro),-3.70179963596527,40.4050596008704,4,,2021-07-12T13:27:12.000+0200
1523210,resto,Gran Vía 57,-3.70845156137417,40.4217611837549,0,,2021-07-12T13:27:24.000+0200
1524111,resto,Gran Via 24 CV Hortaleza,-3.70107975058538,40.4200738080907,4,,2021-07-12T13:27:25.000+0200
1525732,envases,Alcalá CV Canillejas A Vicalvaro,-3.6170143956903,40.4435457315142,0,,2021-07-12T13:27:29.000+0200
1523594,resto,Pendiente de reubicar.Plaza Santo Domingo Fla.43 (Dentro De Plaza),-3.70844967639762,40.4200205389985,0,,2021-07-12T13:27:34.000+0200
1525647,resto,José Gutiérrez Abascal Fla.20,-3.69011749384851,40.4401716648658,0,,2021-07-12T13:27:39.000+0200
1523886,resto,Mayor N°9,-3.70588363176395,40.4163594598375,0,,2021-07-12T13:27:40.000+0200
1524813,resto,Pz Independencia 2,-3.68931908550024,40.4203810413009,0,,2021-07-12T13:27:54.000+0200
1522992,envases,Av. Marqués De Corbera N°54-56 (Metro La Elipa),-3.6509436229678,40.4262409799852,0,,2021-07-12T13:27:54.000+0200
1524284,envases,Peña Prieta FTE. N°2,-3.66898294590824,40.3984632094679,0,,2021-07-12T13:27:59.000+0200
1525073,envases,P°Castellana 274 CV Padre F° Palau Y Quer,-3.68661582836028,40.474301447286,4,,2021-07-12T13:28:00.000+0200
1524403,resto,Juan José Martinez Seco N°34 CV Benita López,-3.69003315427706,40.35164121899,4,,2021-07-12T13:28:02.000+0200
1522989,resto,Pza. Cristina Arce Y Rocío Oña,-3.58722514990713,40.4551650822182,4,,2021-07-12T13:28:09.000+0200
1525557,resto,Ofelia Nieto N°1,-3.71139028854059,40.4578268498984,0,,2021-07-12T13:28:13.000+0200
1525549,resto,Plaza Carlos Trías Bertrán 4,-3.69424313181883,40.451036698344,8,LLENA,2021-07-12T13:28:14.000+0200
1524078,resto,Gran Vía 66 Junto Semáforo,-3.70897961374155,40.4222984382733,0,,2021-07-12T13:28:17.000+0200
1524151,resto,Conde De Casal (Darsena Autobuses Salida Carretera De Valencia),-3.66846771299442,40.4064204486843,4,,2021-07-12T13:28:22.000+0200
1523918,envases,Arroyo Belincoso N°26,-3.65254716651522,40.4099328797817,0,,2021-07-12T13:28:24.000+0200
1524835,envases,Gran Vía 56 CV San Bernardo,-3.70782223158647,40.4216029515078,0,,2021-07-12T13:28:30.000+0200
1525628,resto,Ronda De Atocha 35 (Circo Price),-3.69867253866805,40.4059986290895,4,,2021-07-12T13:28:38.000+0200
1524833,resto,Pza. Juan Goytisolo Frente Dr Drumen,-3.69327747515576,40.4087447534056,0,,2021-07-12T13:28:50.000+0200
1524148,resto,Plaza Rey,-3.6961943821712,40.4203057482274,0,,2021-07-12T13:28:51.000+0200
1525213,resto,P° Extremadura N° 31 CV Antillon,-3.7285136069318,40.4134884751601,0,,2021-07-12T13:28:51.000+0200
1524993,envases,Golondrina Estradaestacion Aravaca,-3.78516297878445,40.4483414616689,0,,2021-07-12T13:28:55.000+0200
1524025,resto,P° Vía Verde De La Gasolina SN (Metro El Capricho),-3.5935409893718,40.4535804793518,0,,2021-07-12T13:28:56.000+0200
1523524,resto,Av. De Las Águilas FTE. N°110,-3.78061756698811,40.3812968084667,2,,2021-07-12T13:28:59.000+0200
1525037,resto,Av. De Las Águilas Junto Fla. 26,-3.76334465171209,40.385149565116,10,LLENA,2021-07-12T13:29:05.000+0200
1524179,envases,Javier De Miguel (Centro De Mayores),-3.66349915307006,40.3887214696277,0,,2021-07-12T13:29:10.000+0200
1525209,resto,Glorieta Cuatro Caminos FTE. Fla.109,-3.70413111351162,40.4473728234296,2,,2021-07-12T13:29:12.000+0200
1524100,resto,Gran Vía 27,-3.70278584343207,40.4200098163254,2,,2021-07-12T13:29:15.000+0200
1524978,envases,Av. Real De Pinto N°27,-3.70613059714624,40.3463517162405,0,,2021-07-12T13:29:17.000+0200
1523803,envases,Plaza De La Encarnación Fla.4,-3.71120175513642,40.419597824902,0,,2021-07-12T13:29:26.000+0200
1524141,resto,Plaza Ángel 6 Junto Fla.20,-3.70183394440728,40.4143668138128,0,,2021-07-12T13:29:30.000+0200
1524463,resto,Fuencarral CV Barceló FTE. Palma,-3.7011718926477,40.4261067882624,6,,2021-07-12T13:29:32.000+0200
1523919,resto,Marroquina Posterior N°11 (Galería Efe),-3.65062048281013,40.4075995395372,2,,2021-07-12T13:29:32.000+0200
1523811,envases,P° Extremadura CV Pz Puerta De Ángel,-3.72850084075309,40.413822862133,0,,2021-07-12T13:29:33.000+0200
1525616,resto,Thaler CV Calderilla,-3.73835360469915,40.3654935710801,4,,2021-07-12T13:29:34.000+0200
1524828,resto,Glorieta De Bilbao N°7 CV Fuencarral,-3.70208095412633,40.4287932422792,0,,2021-07-12T13:29:37.000+0200
1523905,resto,Av. San Diego N°114,-3.66707823643812,40.3857570556367,0,,2021-07-12T13:29:46.000+0200
1523199,resto,Arenal 10 (FTE. Museo Del Jamón),-3.70569627650658,40.4170713881426,6,,2021-07-12T13:29:55.000+0200
1524925,envases,Plaza De Jacinto Benavente,-3.70368545024851,40.4146069527361,0,,2021-07-12T13:29:58.000+0200
1525456,resto,Encomienda De Palacios N°380,-3.63290559304731,40.3961505177323,4,,2021-07-12T13:30:01.000+0200
1523889,envases,Príncipe De Vergara 154,-3.6777052517914,40.4485599940555,4,,2021-07-12T13:30:06.000+0200
1524888,resto,Fuencarral 16,-3.70110023319936,40.4214255899108,2,,2021-07-12T13:30:22.000+0200
1523931,envases,Francos Rodríguez CV Pirineos,-3.71584477888803,40.4585547770263,6,,2021-07-12T13:30:29.000+0200
1525662,envases,Via Lusitana CV Pza. Elíptica,-3.71816518072047,40.3850731586323,4,,2021-07-12T13:30:31.000+0200
1525106,resto,Av. Monforte De Lemos CV Ginzo De Limia (Puerta La Vaguada),-3.70468661809366,40.4795623828522,2,,2021-07-12T13:30:33.000+0200
1523317,resto,Bailen Entre Flas. 305-307,-3.71361773488444,40.4134547898166,4,,2021-07-12T13:30:34.000+0200
1524899,resto,Plaza De Tirso De Molina,-3.70469406889237,40.4124170111217,6,,2021-07-12T13:30:35.000+0200
1523008,resto,José Del Hierro N°39,-3.64431039634441,40.4401987344104,4,,2021-07-12T13:30:38.000+0200
1524817,resto,Arenal 20 CV Bordadores,-3.707247,40.41748,2,,2021-07-12T13:30:39.000+0200
1525224,envases,Cebreros FTE. Fla.23 (Metro Lucero),-3.74559853490879,40.4048397036486,0,,2021-07-12T13:30:41.000+0200
1523531,resto,Pz Colon FTE. Fla.37,-3.68961731513222,40.4246179818525,2,,2021-07-12T13:30:41.000+0200
1523127,resto,Av. Mendez Pelayo,-3.68100826744035,40.4044209341619,0,,2021-07-12T13:30:46.000+0200
1524953,envases,Sinesio Delgado Puerta Carrefour,-3.70945399927963,40.4716303156031,0,,2021-07-12T13:30:55.000+0200
1525251,resto,Bulevar Indalecio Prieto Biblioteca,-3.62135993727526,40.3998015773848,0,,2021-07-12T13:30:55.000+0200
1525143,resto,Alcalá N°654,-3.60814788604924,40.4491070797136,0,,2021-07-12T13:30:58.000+0200
1525671,resto,Av. Monforte De Lemos CV Ginzo De Limia,-3.70479504214799,40.4794830619185,8,LLENA,2021-07-12T13:31:06.000+0200
1525533,envases,Gral. Ricardos N°153 CV Gta. Valle Del Oro,-3.73122111569355,40.3887684135078,0,,2021-07-12T13:31:08.000+0200
1525622,envases,Gran Via De Villaverde Acceso Estacion*,-3.68349476980858,40.3528540034839,0,,2021-07-12T13:31:15.000+0200
1523846,envases,Pz Manuel Becerra 4,-3.66952158350497,40.4282096515482,8,LLENA,2021-07-12T13:31:15.000+0200
1524876,envases,Gran Via 30,-3.70285231526084,40.4201786515197,6,,2021-07-12T13:31:18.000+0200
1523481,envases,Serrano 24,-3.6880263932861,40.4238301312766,2,,2021-07-12T13:31:22.000+0200
1525554,resto,Plaza Liceo N°3,-3.64409579135717,40.4568966173281,0,,2021-07-12T13:31:31.000+0200
1523003,resto,Glorieta Alsacia (Metro Alsacia),-3.62310549800046,40.4176401119883,4,,2021-07-12T13:31:37.000+0200
1523825,envases,Plaza De La Prosperidad,-3.67488019440709,40.4442161118617,2,,2021-07-12T13:31:53.000+0200
1524890,resto,Pza. Madre Isabel De Larrañaga CV Parvillas Altas,-3.70691426281123,40.3447242423351,0,,2021-07-12T13:31:57.000+0200
1525173,resto,Av. Pablo Iglesias 96 (Metro Francos Rodríguez),-3.71156201200495,40.457244186853,6,,2021-07-12T13:31:57.000+0200
1523112,resto,Gran Vía 78,-3.71038317254747,40.423193223939,4,,2021-07-12T13:32:00.000+0200
1523244,resto,Estacion Cercanias Asamblea De Madrid,-3.66816308389991,40.3818957183274,4,,2021-07-12T13:32:07.000+0200
1523883,envases,Av. Mendez Pelayo Entrada Retiro Frente Sainz De Baranda,-3.67858161933338,40.4171041297854,2,,2021-07-12T13:32:12.000+0200
1523505,resto,Gran Vía 41,-3.70657392867891,40.4205617824719,2,,2021-07-12T13:32:12.000+0200
1524960,resto,Plaza Chamberí N°41 Junto Fla. 27 CV Santa Engracia,-3.69768012591096,40.4322224680667,6,,2021-07-12T13:32:17.000+0200
1524320,envases,Higueras CV Cebreros (Metro Lucero),-3.74502649842159,40.4048517333995,2,,2021-07-12T13:32:24.000+0200
1525008,resto,Pedroches Esq. Menbezar,-3.66964902803006,40.3790523492524,0,,2021-07-12T13:32:29.000+0200
1523870,envases,Pendiente de reubicar.Plaza De España FTE. N°18,-3.7120200917929,40.4241291302376,0,,2021-07-12T13:32:30.000+0200
1524873,envases,Gran Vía 78,-3.71036119081656,40.4231790571686,0,,2021-07-12T13:32:32.000+0200
1524748,resto,Camino De Ganapanes Junto Fla.57,-3.71585933392136,40.4761030192069,2,,2021-07-12T13:32:35.000+0200
1525582,envases,Gran Via Villaverde Acceso Estacion Villaverde Bajo,-3.68367498711786,40.3528052646212,0,,2021-07-12T13:32:36.000+0200
1523951,envases,Bulevar Indalecio Prieto CV Parra,-3.62115573657648,40.400821509158,0,,2021-07-12T13:32:40.000+0200
1524361,resto,Av. Albufera Esq. Pio Felipe,-3.65401813512206,40.3917507843262,6,,2021-07-12T13:32:46.000+0200
1524112,envases,Plaza De Armeria Entre Palacio Y Catedral,-3.71500190274931,40.4162857575504,0,,2021-07-12T13:32:53.000+0200
1523598,envases,Bailen Entre Flas. 272-270,-3.71368187396077,40.4143601793962,0,,2021-07-12T13:32:56.000+0200
1525600,envases,Plaza Moncloa Intercambiador,-3.71972602579689,40.4347707009229,0,,2021-07-12T13:33:08.000+0200
1523941,envases,Fuente Carrantona N°10,-3.63697093605797,40.399444860108,0,,2021-07-12T13:33:13.000+0200
1525194,resto,Danza CV Av. De Ma Aviación,-3.77316302106572,40.37419669,0,,2021-07-12T13:33:13.000+0200
1525631,envases,Gral. Ricardos N°131,-3.72824058531542,40.3907356093696,0,,2021-07-12T13:33:33.000+0200
1525633,resto,Oca N°69 CV Pinzon,-3.74009775880716,40.388717132406,0,,2021-07-12T13:33:45.000+0200
1525613,resto,"Palos De La Frontera (Polideportivo Integrado, Salida Por Palos De La Frontera)",-3.69522983638095,40.4030392411208,0,,2021-07-12T13:33:45.000+0200
1524027,envases,Martinez De La Riva FTE. N° 116,-3.66334888247676,40.3833989515504,0,,2021-07-12T13:33:46.000+0200
1524974,resto,P° Alberto Palacios N°11,-3.71019813680891,40.3462184965975,4,,2021-07-12T13:33:46.000+0200
1524150,resto,Plaza Sta. Soledad Torres Acosta CV Concepcion Arenal,-3.70479475972014,40.4211430384642,6,,2021-07-12T13:33:50.000+0200
1524446,envases,Puerto Balbaran Jto. Canchas De Futbol,-3.65988676022507,40.3772700941481,0,,2021-07-12T13:33:53.000+0200
1525165,resto,Plaza De Cuzco Salida Metro Santiago Bernabéu (FTE.101),-3.69082000875658,40.4539080323541,4,,2021-07-12T13:33:54.000+0200
1523125,resto,Gta. Valle Del Oro FTE. N°4,-3.73082730012135,40.388240538785,0,,2021-07-12T13:34:00.000+0200
1523184,envases,Peña Prieta Esq. Monte Oliveti,-3.66848754509938,40.3987962538023,4,,2021-07-12T13:34:12.000+0200
1525177,resto,Embajadores FTE.60 Fla.75,-3.70403447880175,40.4076727991648,0,,2021-07-12T13:34:24.000+0200
1524877,resto,Av. Córdoba (Hospital 12 De Octubre),-3.69593986833673,40.3766332555502,0,,2021-07-12T13:34:26.000+0200
1524165,envases,Plaza Sta. Soledad Torres Acosta CV Concepcion Arenal,-3.70481686400911,40.4211691236081,6,,2021-07-12T13:34:35.000+0200
1524673,resto,José Del Hierro S/N (Parque El Calero),-3.65080655787514,40.4360851245463,4,,2021-07-12T13:34:38.000+0200
1524929,resto,Bravo Murillo Esquina C/ Pedro Moreno (Farola 512),-3.69246310571491,40.4652502311489,0,,2021-07-12T13:34:41.000+0200
1524413,envases,Gral. Ricardos N°12 CV Vicente Parra,-3.71748533861492,40.3969597352792,6,,2021-07-12T13:34:49.000+0200
1524669,resto,Monte Ulia CV Antonia Calas,-3.66920169256229,40.3979217915745,2,,2021-07-12T13:34:54.000+0200
1525571,resto,Gta. Santa M.ª De La Cabeza 8 (Pasillo Verde),-3.6995973283193,40.4009277493779,2,,2021-07-12T13:34:56.000+0200
1524872,envases,Plaza De Santa Cruz,-3.705536,40.415124,0,,2021-07-12T13:35:03.000+0200
1524990,resto,Plaza De Legazpi 1 (Salida Metro),-3.69493446531464,40.3915976696564,2,,2021-07-12T13:35:05.000+0200
1523248,envases,Plaza Del Carmen CV Tres Cruces,-3.7031898907344,40.4190521140737,4,,2021-07-12T13:35:10.000+0200
1525703,resto,Real CV Calderilla (Isla Azul),-3.74028309236568,40.3626923476917,0,,2021-07-12T13:35:12.000+0200
1523830,envases,Conde De Casal (Darsena Autobuses Salida Carrtera De Valencia),-3.66842867919339,40.40641471575,0,,2021-07-12T13:35:13.000+0200
1524950,envases,Plaza Manuel Gomez Moreno (Orense 6 Post.),-3.694512,40.44834,0,,2021-07-12T13:35:14.000+0200
1523816,resto,P° Extremadura N°158 (Salida Metro Alto Extremadura),-3.739003269929,40.4099125800743,6,,2021-07-12T13:35:16.000+0200
1524875,resto,Toledo N°13,-3.70750213334865,40.4144663471305,0,,2021-07-12T13:35:20.000+0200
1524917,resto,Gral. Ricardos N°37 CV Gral. Martin Cerezo,-3.71943278482911,40.3956819146846,2,,2021-07-12T13:35:23.000+0200
1525685,resto,Via Lusitana CV Pza. Elíptica,-3.71816809418735,40.3850540719051,0,,2021-07-12T13:35:54.000+0200
1524098,resto,Hortaleza 63  Colegio Arquitectos,-3.69847317920174,40.4240024533132,0,,2021-07-12T13:36:00.000+0200
1525102,envases,Pza. Cristina Arce Y Rocío Oña,-3.58723895223785,40.4551376003661,2,,2021-07-12T13:36:04.000+0200
1524723,resto,Villardondiego CV Villacarlos,-3.60831095959677,40.4060438674702,2,,2021-07-12T13:36:13.000+0200
1524158,resto,Plaza De Santa Cruz,-3.70555070007696,40.4152863293757,2,,2021-07-12T13:36:31.000+0200
1524429,resto,P° De La Florida Iglesia San Antonio De La Florida,-3.7261606451256,40.4255539501522,0,,2021-07-12T13:36:34.000+0200
1525098,resto,Plaza Mayor De Barajas N°10,-3.57770903772933,40.4740155059976,2,,2021-07-12T13:36:37.000+0200
1524421,envases,Villardondiego Biblioteca Municipal,-3.60833131166976,40.4055336568686,0,,2021-07-12T13:36:38.000+0200
1524736,envases,Esteban Mora Mercado San Pascual,-3.65426850677414,40.4386645845771,0,,2021-07-12T13:36:47.000+0200
1523118,envases,Pz Colón Fla.58,-3.68846425727559,40.4243310693949,2,,2021-07-12T13:36:53.000+0200
1523113,envases,Alcala Farola 151 (Metro Banco De España),-3.69581469960621,40.419087659414,4,,2021-07-12T13:36:59.000+0200
1525637,envases,Pedro Bosch 77 (Salida Cercanías/Metro),-3.67894037390259,40.3962699494718,2,,2021-07-12T13:37:03.000+0200
1523800,envases,Fuente Carrantona N°8,-3.63739829268984,40.3988060678942,0,,2021-07-12T13:37:04.000+0200
1523852,envases,Av. América 1,-3.67710468702761,40.4376833950959,0,,2021-07-12T13:37:06.000+0200
1524427,resto,Peña Gorbea Esq. Monte Igueldo,-3.66806338023394,40.3959958398715,0,,2021-07-12T13:37:07.000+0200
1523947,resto,Plaza Moncloa Intercambiador,-3.71969962599883,40.4347815923065,2,,2021-07-12T13:37:11.000+0200
1524912,resto,Raimundo Fernández Villaverde Con Paseo Castellana (Metro),-3.69172993794618,40.4459621750785,2,,2021-07-12T13:37:12.000+0200
1524881,envases,Bravo Murillo 28 (Cines Verdi),-3.7041566597964,40.4366308644811,0,,2021-07-12T13:37:19.000+0200
1524923,resto,Plaza Cibeles CV Paseo Recoletos,-3.69306393266946,40.4198443043436,6,,2021-07-12T13:37:29.000+0200
1525199,envases,P°Castellana CV Av. Monforte De Lemos,-3.68728253283654,40.475249743326,6,,2021-07-12T13:37:29.000+0200
1525229,envases,Av. Monforte De Lemos 101 CV Ginzo De Limia,-3.704469,40.479138,0,,2021-07-12T13:37:36.000+0200
1523155,resto,Av. Bruselas 56,-3.66283076372628,40.4394178076921,0,,2021-07-12T13:37:37.000+0200
1524124,resto,Gran Via 2,-3.69725800962171,40.4191249876042,0,,2021-07-12T13:37:41.000+0200
1525574,resto,P° Castellana 214,-3.68899906807506,40.46495867646,2,,2021-07-12T13:37:46.000+0200
1525204,resto,Gral. Ricardos N°160 CV Agueda Diaz,-3.73097418101101,40.3891394414943,2,,2021-07-12T13:37:48.000+0200
1524051,resto,Extremeños (Biblioteca),-3.64350564893344,40.3844742355837,2,,2021-07-12T13:37:50.000+0200
1525589,resto,Ramirez De Prado 3 (Biblioteca),-3.69063471143576,40.3996128170757,0,,2021-07-12T13:37:51.000+0200
1523820,resto,P° Castellana 220 Hotel,-3.68835257050756,40.4678489899859,2,,2021-07-12T13:37:53.000+0200
1523486,resto,Hacienda De Pavones,-3.65082624901169,40.4052776241302,0,,2021-07-12T13:38:03.000+0200
1525550,resto,Av. Carabanchel Alto CV Callejon De La Rosa (Metro Carabanchel Alto),-3.75181127798819,40.3719555375283,0,,2021-07-12T13:38:03.000+0200
1525036,resto,Bravo Murillo 28 (Cines Verdi),-3.70415964257987,40.4366177363986,0,,2021-07-12T13:38:18.000+0200
1525636,resto,"Intermedia Sur CV Transversal Sexta,",-3.699344,40.333129,0,,2021-07-12T13:38:18.000+0200
1525602,resto,Ancora 1 Esquina Paseo De Las Delicias,-3.69346439821602,40.4030707925285,0,,2021-07-12T13:38:28.000+0200
1523139,envases,Puerta De Alcala (Tramo Entrada Del Retiro),-3.68806797544639,40.4196872814412,0,,2021-07-12T13:38:29.000+0200
1524802,envases,Plaza De Oriente fte. Carlos III FLA.48,-3.71145887221054,40.4180615030766,0,,2021-07-12T13:38:31.000+0200
1525660,resto,Antonia Mercé 3,-3.67338360791015,40.4237145069818,6,,2021-07-12T13:38:38.000+0200
1525086,resto,Princesa De Austria CV Pza. Elíptica,-3.71799840093224,40.3847786214776,0,,2021-07-12T13:38:41.000+0200
1524040,resto,Av. Rafael Ybarra N°43,-3.71110567976356,40.3820466323437,0,,2021-07-12T13:38:46.000+0200
1525695,resto,Serrano 201 Fla.311,-3.68095900076391,40.4525818277249,4,,2021-07-12T13:38:49.000+0200
1524793,resto,Caoba 1 (Ies Juan De La Cierva),-3.70620316967158,40.4023958960397,0,,2021-07-12T13:38:53.000+0200
1525244,resto,Princesa CV Paseo Moret,-3.71940875877832,40.4346695711998,0,,2021-07-12T13:38:57.000+0200
1524061,envases,Cº De Vinateros (Centro De Salud Torito),-3.64632283422514,40.4062184776661,2,,2021-07-12T13:38:57.000+0200
1524665,resto,Juan José Martinez Seco N°52 CV Martinez Oviol,-3.68880892890571,40.3516628184205,0,,2021-07-12T13:39:02.000+0200
1525167,envases,Glorieta Ruiz Gimenez 3 (Metro San Benardo),-3.70598537624559,40.429892219972,8,LLENA,2021-07-12T13:39:42.000+0200
1523581,resto,Arenal FTE.6 ( Local Rosa Clara),-3.70527673651031,40.4169142439828,0,,2021-07-12T13:39:43.000+0200
1524766,resto,Ravena N°18,-3.6140337097581,40.4191756893422,0,,2021-07-12T13:39:50.000+0200
1525250,resto,Marqués De Monistrol FTE. N°1,-3.72411635141935,40.4144161496946,2,ERROR,2021-07-12T13:39:50.000+0200
1524437,resto,C° Viejo De Leganes CV Francisco De Icaza,-3.72829030366795,40.3850509511176,4,,2021-07-12T13:39:52.000+0200
1523254,envases,Plaza Cristo Rey CV Doctor Jimenez Diaz,-3.71816892923682,40.4395586625089,4,,2021-07-12T13:39:55.000+0200
1523117,resto,Reina Cristina,-3.68519830697748,40.4063349738407,6,,2021-07-12T13:40:16.000+0200
1523939,resto,Fuentidueña (Centro De Salud Villa De Vallecas),-3.62213144737747,40.3718666783199,2,,2021-07-12T13:40:19.000+0200
1525729,resto,Valdebernardo N°2,-3.63251837988878,40.3987496346996,4,,2021-07-12T13:40:23.000+0200
1524480,resto,Plaza De Oriente FTE. Carlos III FLA.48,-3.7114527603749,40.4180734587431,0,,2021-07-12T13:40:24.000+0200
1524898,envases,Glorieta Cuatro Caminos FTE. Fla. 109,-3.70411245660713,40.4473788965226,8,LLENA,2021-07-12T13:40:28.000+0200
1525742,envases,José Del Hierro S/N (Parque El Calero),-3.65082362232926,40.4360754933235,0,,2021-07-12T13:40:36.000+0200
1523143,resto,Paseo Del Prado CV Felipe IV,-3.69313320685207,40.4150603556815,4,,2021-07-12T13:40:39.000+0200
1522994,resto,Paseo Artilleros CV San Cipriano (Metro Vicalvaro),-3.60885348780109,40.4044832901686,2,,2021-07-12T13:40:39.000+0200
1523877,envases,Toledo N°13,-3.70750694726256,40.4144794276346,4,,2021-07-12T13:40:42.000+0200
1524839,envases,Plaza Canal De Isabel II 3 FTE. Fla.7,-3.7016828726852,40.4578929758355,0,,2021-07-12T13:40:43.000+0200
1525222,envases,Plaza De Lavapies Junto Árbol,-3.70108472234964,40.4088348748566,2,,2021-07-12T13:40:48.000+0200
1524849,resto,Plaza Tirso De Molina,-3.7050708292284,40.4123622742961,0,,2021-07-12T13:40:48.000+0200
1524962,envases,La Estrada CV Francisco Sancha,-3.69360958103587,40.4882412731842,0,,2021-07-12T13:40:49.000+0200
1523187,envases,Alcalá 237 (Pz Toros) Ventas Izquierda Entrada Principal,-3.66296203359661,40.4313436567362,0,,2021-07-12T13:40:52.000+0200
1524701,envases,Pz Santa Cristina Nº4,-3.72714502611182,40.413890988284,0,,2021-07-12T13:40:55.000+0200
1523221,resto,Narváez 1,-3.67565878480397,40.4244830688431,4,,2021-07-12T13:40:56.000+0200
1524792,resto,Alcalá CV Canillejas A Vicalvaro,-3.61699884084309,40.4435505821135,0,,2021-07-12T13:40:56.000+0200
1524977,envases,Plaza De Lima Fla.2 FTE. Edificio Bankia,-3.69135994574567,40.4517881382847,6,,2021-07-12T13:41:01.000+0200
1525034,envases,Santa Engracia CV Cuatro Caminos (Metro Lateral),-3.70359514560762,40.4465406232475,0,,2021-07-12T13:41:04.000+0200
1524814,resto,Plaza Mayor 3,-3.70735519959534,40.4150274033313,4,,2021-07-12T13:41:08.000+0200
1523261,envases,Gran Vía 41,-3.70658180050997,40.4205688857356,0,,2021-07-12T13:41:16.000+0200
1525228,resto,Santa Engracia CV Cuatro Caminos (Isleta Ascensor Metro),-3.70386706054609,40.4464364716341,2,,2021-07-12T13:41:22.000+0200
1524405,envases,P° Castellana 280 Semiesq. Manuel Caldeiro,-3.68617125046599,40.4763146751345,0,,2021-07-12T13:41:32.000+0200
1524724,resto,Oca N°23-25 (Mercadona),-3.73560665412978,40.3896670722918,4,,2021-07-12T13:41:35.000+0200
1525219,envases,Mendez Álvaro N° 40 (Junto Plaza Y Parque Infantil),-3.68458014052154,40.3992876513136,0,,2021-07-12T13:41:35.000+0200
1524811,envases,Jacometrezo 1,-3.70621523094875,40.4201110817377,6,,2021-07-12T13:41:37.000+0200
1524740,envases,María Tudor N°37,-3.65821878052589,40.4978854931198,0,,2021-07-12T13:41:38.000+0200
1525623,resto,Juan Duque 25 (Parque),-3.71941523405554,40.4117358636703,6,,2021-07-12T13:41:38.000+0200
1524058,envases,P°Castellana 136,-3.69042233686306,40.45133370072,0,,2021-07-12T13:41:43.000+0200
1525046,resto,Av. De Los Andes N°50 (Eci Campo De Las Naciones),-3.618239,40.456779,0,,2021-07-12T13:41:47.000+0200
1524836,envases,Plaza De La Corrala Junto Fuente,-3.70283243736075,40.4079756849946,6,,2021-07-12T13:42:00.000+0200
1523115,envases,Gran Vía 31,-3.70388373243074,40.4200919286318,6,,2021-07-12T13:42:02.000+0200
1524120,envases,Arenal 2 FTE.1 (Local Coimbra),-3.70480990100815,40.4169162583737,0,,2021-07-12T13:42:03.000+0200
1525201,envases,Plaza Rodolfo Y Ernesto Halffter,-3.67767791672608,40.4466151069685,0,,2021-07-12T13:42:12.000+0200
1525713,resto,Gran Vía 31,-3.70385719909323,40.4200897063781,0,,2021-07-12T13:42:16.000+0200
1523120,resto,C/Ceraceros 1,-3.70043573209159,40.416790472918,0,,2021-07-12T13:42:28.000+0200
1524082,envases,Centro Civico El Pozo Del Tío Raimundo,-3.6600852109436,40.3741308628868,0,,2021-07-12T13:42:29.000+0200
1524168,resto,O 'Donnel 63,-3.6692206949855,40.4212956765749,0,,2021-07-12T13:42:40.000+0200
1525593,envases,Plaza Conde De Casal FTE. 5,-3.66957075132904,40.4067421063048,0,,2021-07-12T13:42:48.000+0200
1524714,envases,Av. De Guadalajara Junto. Fla. 16-18 (C.C Las Rosas),-3.62121398853633,40.419041122556,2,,2021-07-12T13:42:58.000+0200
1523285,resto,P° Alberto  N°31 CV Oasis,-3.71243337711153,40.3454032690076,0,,2021-07-12T13:43:00.000+0200
1523230,resto,Peña Prieta Esq. Monte Oliveti,-3.66851848641001,40.3987877793797,0,,2021-07-12T13:43:01.000+0200
1524911,envases,Gran Vía 44 Junto Semáforo,-3.70536482820839,40.4203588090724,6,,2021-07-12T13:43:06.000+0200
1525667,resto,Gral. Ricardos N°59 CV Hnos. Del Moral,-3.72158841923293,40.3944921492817,0,,2021-07-12T13:43:08.000+0200
1523854,envases,Intercambiador Aluche Junto Fla.82,-3.75986563397125,40.3853351637445,0,,2021-07-12T13:43:13.000+0200
1524903,resto,Av. Monforte De Lemos 101 CV Ginzo De Limia,-3.704452,40.479132,2,,2021-07-12T13:43:22.000+0200
1524312,resto,San Restituto Metro Valdezarza,-3.71684639698693,40.4652019581014,0,,2021-07-12T13:43:29.000+0200
1524298,resto,Av. Albufera N°42 (Junta Municipal Vallecas),-3.66628623576834,40.3966982780622,2,,2021-07-12T13:43:36.000+0200
1523608,resto,Domingo Parraga N°58 CV Santa Joaquina De Vedruna,-3.71504173307424,40.3422146717169,0,,2021-07-12T13:43:38.000+0200
1524411,resto,Monguer Metro Francos Rodríguez,-3.7128585645143,40.4565495302544,6,,2021-07-12T13:43:39.000+0200
1524321,resto,Pza. Distrito De Latina (Guareña FTE. N°3),-3.76494018798643,40.3855913200923,6,,2021-07-12T13:43:42.000+0200
1524164,envases,Alcala N° 31,-3.698286,40.418349,0,,2021-07-12T13:43:43.000+0200
1524946,envases,Glorieta San Vicente CV P° De La Florida,-3.72008372660329,40.4205243992535,0,,2021-07-12T13:43:50.000+0200
1522886,resto,José Del Hierro N°55,-3.64289276294361,40.4408021765445,0,,2021-07-12T13:43:51.000+0200
1524821,resto,Plaza De Las Provincias 7,-3.70605059078531,40.4150014108583,0,,2021-07-12T13:43:54.000+0200
1523207,resto,Hacienda De Pavones N°356,-3.63548514152846,40.4008569208089,0,,2021-07-12T13:43:54.000+0200
1523916,resto,Gral. Ricardos N°4,-3.71661757590524,40.397450190032,0,,2021-07-12T13:43:56.000+0200
1523296,envases,P°Extremadura Cv P° Ermita Del Santo,-3.72389039068123,40.4139191584492,0,ERROR,2021-07-12T13:43:58.000+0200
1522709,envases,Av. Moratalaz N°134,-3.6469082689571,40.4067884727658,6,,2021-07-12T13:44:00.000+0200
1523605,envases,P° De La Florida Iglesia San Antonio De La Florida,-3.72614175274009,40.4255373832062,0,,2021-07-12T13:44:04.000+0200
1524042,resto,Arroyo Belincoso N°13,-3.65278328207519,40.4098421598706,6,,2021-07-12T13:44:21.000+0200
1524135,resto,Conde De Peñalver 16,-3.67548825656032,40.4264553409657,0,,2021-07-12T13:44:21.000+0200
1524443,envases,Av. De Los Andes N°50 (Eci Campo De Las Naciones),-3.618278,40.456734,0,,2021-07-12T13:44:22.000+0200
1525181,envases,Av. Albufera Esq. Pio Felipe,-3.65404153832652,40.3917530357626,2,,2021-07-12T13:44:30.000+0200
1523843,resto,P° Extremadura N°66,-3.73081113801927,40.4129108393628,2,,2021-07-12T13:44:38.000+0200
1525599,resto,Av. De Los Andes N°46 (Mcdonalds),-3.61913894158135,40.4557098689367,0,,2021-07-12T13:44:54.000+0200
1525643,resto,San Cipriano CV Villardondiego,-3.60812316604988,40.4042332745162,0,,2021-07-12T13:45:03.000+0200
1523243,envases,Av. Ensanche De Vallecas CV Alto De La Sartenilla (Metro La Gavia),-3.61236223801415,40.3693323400467,0,,2021-07-12T13:45:05.000+0200
1525011,resto,P° Alberto Palacios N°2-4,-3.70932315058264,40.3465575810723,0,,2021-07-12T13:45:07.000+0200
1524688,envases,P° De La Florida CV Mozart,-3.72496335273522,40.4246045808058,2,,2021-07-12T13:45:28.000+0200
1523158,envases,Alcalá 237 (Pz Toros) Ventas Derecha Entrada Principal,-3.66259392414195,40.4314995116468,0,,2021-07-12T13:45:43.000+0200
1524021,resto,Av. De Portugal CV Turismundo,-3.73542622220224,40.4121732617278,4,,2021-07-12T13:45:53.000+0200
1523807,resto,Luis Mitjans Con Santa Sabina,-3.66890859258154,40.403866196692,6,,2021-07-12T13:45:56.000+0200
1525720,envases,Valle Del Oro N°31 CV C° Viejo De Leganes,-3.72689060039917,40.3876519863233,2,,2021-07-12T13:46:00.000+0200
1524048,envases,Gral. Ricardos N°107,-3.72562384965408,40.3922846590691,0,,2021-07-12T13:46:23.000+0200
1524711,resto,Alcalá FTE. Canillejas A Vicalvaro (Metro Torre Arias),-3.61712071531538,40.4437430058094,4,,2021-07-12T13:46:27.000+0200
1524068,resto,Joaquín Turina CV Clarinetes,-3.76457235989123,40.3728264921779,6,,2021-07-12T13:46:27.000+0200
1523814,resto,Fuente Carrantona Nº8,-3.63738421742694,40.3988013778722,0,,2021-07-12T13:46:28.000+0200
1524283,envases,Arenal 24 (Burger King),-3.70793347169304,40.4176719357802,0,,2021-07-12T13:46:33.000+0200
1525652,resto,Pendiente reubicar.Claudio Moyano,-3.69188750477483,40.409513750231,6,,2021-07-12T13:46:33.000+0200
1523925,resto,Francos Rodríguez Entrada Ies Virgen De La Paloma,-3.71596262348192,40.4587793003388,0,,2021-07-12T13:46:34.000+0200
1525195,resto,Sinesio Delgado Puerta Carrefour,-3.70949766813395,40.47162766378,2,,2021-07-12T13:46:39.000+0200
1524417,envases,Av. Albufera N°9 (Carrefour),-3.66809522086985,40.3977982808107,2,,2021-07-12T13:46:40.000+0200
1524933,envases,Plaza Tirso De Molina,-3.70507376107181,40.4123443788605,6,,2021-07-12T13:46:41.000+0200
1523892,resto,Carmen FTE. Mesonero Romanos,-3.70503511018872,40.4190235952622,0,,2021-07-12T13:46:51.000+0200
1524718,resto,Gral. Ricardos N° 138 CV Pedro Diez,-3.72869009841591,40.3906469651769,0,,2021-07-12T13:46:55.000+0200
1524795,resto,Plaza De Santa Cruz,-3.7056769517296,40.4149083456643,6,,2021-07-12T13:46:55.000+0200
1525033,resto,Intercambiador Aluche Junto Fla. 84,-3.76051914224112,40.3849602090811,4,,2021-07-12T13:47:01.000+0200
1523585,envases,Carretas 1,-3.70324339154775,40.4165540869867,0,,2021-07-12T13:47:03.000+0200
1524900,envases,Av. Rafael Ybarra N°43,-3.71111988182589,40.3820632307511,4,,2021-07-12T13:47:08.000+0200
1524884,resto,Av. Complutense Entrada Parque De Las Ciencias,-3.72733420275697,40.4500394016344,0,,2021-07-12T13:47:09.000+0200
1525694,resto,Plaza Conde De Casal N°8,-3.67059486525208,40.4061664782078,4,,2021-07-12T13:47:19.000+0200
1525594,envases,Av. Europa N°27,-3.7875452523854,40.4452384579143,2,,2021-07-12T13:47:26.000+0200
1524956,envases,Plaza De Las Provincias 4 CV Gerona,-3.70630078349046,40.4149945196305,0,,2021-07-12T13:47:27.000+0200
1525672,envases,Paseo Artilleros Junto Fla.27,-3.6091468076437,40.4048535962903,4,,2021-07-12T13:47:33.000+0200
1524762,resto,Pendiente Reubicar. Melchor Fdez. Almagro N°80 CV Pz De Tuy,-3.71016978839052,40.4755803510375,6,,2021-07-12T13:47:42.000+0200
1524790,resto,María Tudor N°37,-3.65820309974847,40.497878431141,0,,2021-07-12T13:47:44.000+0200
1525155,envases,Jordan CV Olavide,-3.70159814674152,40.4330196674004,4,,2021-07-12T13:47:46.000+0200
1525545,resto,Oliva De Plasencia CV Mirabel,-3.77992786492768,40.3784941978818,0,,2021-07-12T13:48:06.000+0200
1524891,envases,Pza. Hidrógeno N°7 CV Isabelita Usera N°37,-3.7076920999524,40.3830484501956,8,LLENA,2021-07-12T13:48:11.000+0200
1523540,resto,Puerta Del Sol (Rodilla),-3.70272607670221,40.4170967623706,0,,2021-07-12T13:48:11.000+0200
1517391,resto,Pza. Mercurio FTE. Junta Municpal De Barajas,-3.57796317595808,40.4745326748698,2,,2021-07-12T13:48:13.000+0200
1525656,envases,Castrogeriz N°7 FTE. Avda. Plaza De Toros,-3.73969698683355,40.386562488026,0,,2021-07-12T13:48:13.000+0200
1525547,resto,Bravo Murillo 172 (Metro Estrecho),-3.70285313564194,40.4536316801264,2,,2021-07-12T13:48:17.000+0200
1524754,resto,Gral. Ricardos N°153 CV Gta. Valle Del Oro,-3.73120254183338,40.3887804490675,4,,2021-07-12T13:48:24.000+0200
1523152,resto,Gran Via 38 CV Concepción Arenal,-3.70470253741572,40.4203276891666,0,,2021-07-12T13:48:25.000+0200
1524847,resto,Fernández De Los Ríos CV Isaac Peral (Junta Distrito),-3.71857654098431,40.435502753464,4,,2021-07-12T13:48:33.000+0200
1524852,resto,Glorieta Rocio Durcal Meteo Francos Rodríguez,-3.71177283380619,40.4572619572676,0,,2021-07-12T13:48:40.000+0200
1524942,envases,Raimundo Fernandez Villaverdecon Paseo Castellana (Metro),-3.69172711118517,40.4459907955724,0,,2021-07-12T13:48:41.000+0200
1525152,resto,Bravo Murillo 322 (Metro Valdeaceras),-3.69580294399421,40.464088415977,0,,2021-07-12T13:48:43.000+0200
1524857,resto,Valle De Mena N°25-27-29,-3.72056716499594,40.4710330047426,4,,2021-07-12T13:48:51.000+0200
1522998,envases,P° Polideportivo (Centro Deportivo),-3.60316528125706,40.408918104979,6,,2021-07-12T13:48:53.000+0200
1525605,resto,Plaza Velazquez (Entrada Museo Del Prado),-3.69284897547328,40.4138011086083,6,,2021-07-12T13:48:57.000+0200
1525211,resto,Acanto 2 (Cines Cinesa),-3.67510255704845,40.3966667520595,4,,2021-07-12T13:48:58.000+0200
1525009,resto,Ginzo De Limia N°29,-3.70401722648834,40.4779360645124,8,LLENA,2021-07-12T13:48:59.000+0200
1525586,resto,Av. Logroño CV Playa De Riazor (Metro Barajas),-3.58255283427079,40.4757681914078,0,,2021-07-12T13:49:09.000+0200
1523821,resto,Juan Bravo FTE.N°52,-3.67495276368167,40.4324284934658,2,,2021-07-12T13:49:09.000+0200
1523920,envases,Pz Manuel Becerra 20,-3.66925538328594,40.427629583032,0,,2021-07-12T13:49:11.000+0200
1524489,envases,Plaza Armeria Entre Palacio Y Catedral Junto Fla.4,-3.71370191826108,40.4164785227476,2,,2021-07-12T13:49:12.000+0200
1525733,resto,Av. Complutense Metro Ciudad Universitaria,-3.7270548558532,40.4435386077195,0,,2021-07-12T13:49:16.000+0200
1525649,resto,Paseo De La Esperanza 21 (Burger King),-3.70441063949681,40.4011559612593,6,,2021-07-12T13:49:18.000+0200
1525113,resto,Arequina N°1,-3.64158141517792,40.4691112273781,0,,2021-07-12T13:49:21.000+0200
1524919,envases,Calle Isaac Peral Con Calle Francisco De Sales (FTE. Clinico),-3.71747353915182,40.4396646056501,4,,2021-07-12T13:49:32.000+0200
1525641,resto,Joaquín Turina (Aldi),-3.76504832170859,40.3728865107273,6,,2021-07-12T13:49:36.000+0200
1524954,resto,Plaza Mayor De Ciudad Pegaso Junto Fla.12,-3.59515533705641,40.4478386711342,4,,2021-07-12T13:49:37.000+0200
1524481,envases,Pz Cibeles 4,-3.69222938066988,40.419664053027,0,,2021-07-12T13:49:43.000+0200
1523163,resto,Mayor CV Coloreros,-3.70692644410355,40.4163244846537,6,,2021-07-12T13:49:47.000+0200
1524750,resto,Mendez Álvaro N°40 (Junto Plaza Y Parque Infantil),-3.68458727672462,40.3992946923199,0,,2021-07-12T13:49:51.000+0200
1525642,resto,Príncipe De Vergara 144,-3.67802860739955,40.4461184453847,2,,2021-07-12T13:49:55.000+0200
1523262,resto,Ctra. Boadilla CV Sanchidrian (Metro Colonia Jardin),-3.77474793250977,40.3970892844157,0,,2021-07-12T13:49:58.000+0200
1523175,envases,Puerta Del Sol (Metro/Cercanias),-3.702893552936,40.4168867002944,0,,2021-07-12T13:50:03.000+0200
1525015,envases,Plaza Chamberí N°41 Junto Fla. 27 CV Santa Engracia,-3.69769904762506,40.4322994883608,0,,2021-07-12T13:50:03.000+0200
1525618,envases,Av. Monforte De Lemos Junto Fla. 174,-3.70746543605703,40.478880376173,0,,2021-07-12T13:50:03.000+0200
1524970,envases,Ginzo De Limia 54 CV Av. Monforte De Lemos,-3.703914,40.478998,8,LLENA,2021-07-12T13:50:18.000+0200
1525156,resto,P° Alberto Palacios N°1,-3.7091377304562,40.3464037787166,2,,2021-07-12T13:50:19.000+0200
1524415,envases,Av. Albufera N°42 (Junta Municipal Vallecas),-3.66630660556788,40.3967088869012,0,,2021-07-12T13:50:22.000+0200
1523895,resto,Pedro Bosch,-3.67583276334601,40.3998678719027,2,,2021-07-12T13:50:25.000+0200
1524369,envases,Sta. Marta FTE. N°19,-3.6616549654336,40.4029980626621,0,,2021-07-12T13:50:26.000+0200
1525187,resto,Plaza Rodolfo Y Ernesto Halffter,-3.67770447051871,40.446618526971,0,,2021-07-12T13:50:28.000+0200
1524959,envases,Antonio López N°111 (Plaza Rio 2),-3.70185237186912,40.3904283337441,0,,2021-07-12T13:50:29.000+0200
1524834,resto,pendiente de reubicar.Gran Vía 23,-3.70178566501932,40.4199515339296,0,,2021-07-12T13:50:33.000+0200
1525231,envases,Orense 25,-3.695223,40.451321,0,,2021-07-12T13:50:38.000+0200
1523610,resto,Paseo Del Rey FTE. N°10,-3.71836263628605,40.4214504263063,2,,2021-07-12T13:50:42.000+0200
1525575,resto,Bravo Murillo 205 Salida Metro Estrecho,-3.70273991904942,40.4553438161105,0,,2021-07-12T13:50:43.000+0200
1524907,resto,Gral. Ricardos N°53 CV Sallaberry,-3.72088639536847,40.3948779127244,6,,2021-07-12T13:50:47.000+0200
1524075,resto,Puente De Segovia CV Marqués De Monistrol,-3.72407596788895,40.4141398998619,0,,2021-07-12T13:50:57.000+0200
1523868,resto,Manuel Machado N°14 Alcampo,-3.65952762370766,40.4118574028031,4,,2021-07-12T13:51:03.000+0200
1524394,resto,Plaza Del Duque De Pastrana FTE. 3,-3.6779192790327,40.4680512666452,0,,2021-07-12T13:51:06.000+0200
1524053,resto,Av. Complutense Entrada Facultad Ciencia De La Información,-3.72769467051768,40.4455443096328,2,,2021-07-12T13:51:10.000+0200
1525615,resto,Max Aub Con Calle Maestro Ángel Llorca (Hospital La Luz),-3.71403455951032,40.4438381918063,2,,2021-07-12T13:51:12.000+0200
1525208,resto,Plaza De Cuzco Salida Metro Cuzco,-3.69044794951735,40.4583640844298,4,,2021-07-12T13:51:12.000+0200
1525254,envases,P° De La Florida  Estación Príncipe Pio Junto Fla.29,-3.72095695995103,40.4218359215093,0,,2021-07-12T13:51:16.000+0200
1524940,resto,Plaza De Jacinto Benavente,-3.70340403059972,40.4145347721056,0,,2021-07-12T13:51:18.000+0200
1524062,resto,Bulevar José Prat CV Cordel De Pavones,-3.61965701210542,40.3972739042767,6,,2021-07-12T13:51:21.000+0200
1525542,resto,Paseo Santa Isabel CV Alfonso XII,-3.68922782007607,40.407549416198,0,,2021-07-12T13:51:22.000+0200
1525079,envases,Oca N°57 CV Abolengo,-3.7386289019445,40.3890912233318,2,,2021-07-12T13:51:25.000+0200
1525190,resto,Arroyo Bueno N° 4 CV Av. Real De Pinto,-3.70606368884592,40.3490474654065,0,,2021-07-12T13:51:25.000+0200
1523006,resto,San Cipriano N°44 (Metro San Cipriano),-3.60407947000977,40.4039338683295,2,,2021-07-12T13:51:32.000+0200
1523819,resto,Requena Frente Fla.13 CV Plaza De Oriente,-3.7129516767529,40.4171970530821,6,,2021-07-12T13:51:32.000+0200
1524072,envases,Oliva De Plasencia FTE. N°4,-3.7791351511256,40.3785400635284,2,,2021-07-12T13:51:34.000+0200
1523522,resto,Juan Bravo FTE. N°62,-3.6735639658421,40.4323603175744,6,,2021-07-12T13:51:38.000+0200
1524870,resto,Toledo N°7,-3.70758089315454,40.4148400972533,2,,2021-07-12T13:51:46.000+0200
1523876,resto,Puerta Del Sol CV Carrera San Jerónimo (Ria Change),-3.70235297044174,40.4166865505238,2,,2021-07-12T13:51:51.000+0200
1524386,resto,Av. Albufera N°12 (Metro Puente De Vallecas),-3.66821401115363,40.3976724528258,0,,2021-07-12T13:51:57.000+0200
1524130,envases,Gran Vía 54 Junto Kiosko,-3.70716336818894,40.4211558776396,2,,2021-07-12T13:52:01.000+0200
1525588,resto,Valle Del Oro N° 31 CV C° Viejo De Leganes,-3.72691248418773,40.3876578073629,0,,2021-07-12T13:52:04.000+0200
1523928,resto,Av. Santa Eugenia FTE. Estación Cercanías,-3.6087117135201,40.3865928302923,4,,2021-07-12T13:52:04.000+0200
1525206,resto,Av. Monforte De Lemos Entrada Vaguada,-3.70610819030494,40.4791621967343,8,LLENA,2021-07-12T13:52:06.000+0200
1524341,resto,Plaza Callao 1 Fla.3,-3.70598129113473,40.4197352985151,0,,2021-07-12T13:52:08.000+0200
1524438,envases,P° Estación FTE. N°1,-3.68456781085365,40.3526688815153,2,,2021-07-12T13:52:15.000+0200
1523130,resto,Pz Independencia 5,-3.6882311974075,40.4204375793623,2,,2021-07-12T13:52:16.000+0200
1523132,envases,Pz Manuel Becerra 8,-3.66874610939457,40.4286455798854,0,,2021-07-12T13:52:32.000+0200
1524924,resto,Golondrina Estrada Estacion Aravaca,-3.78515962297158,40.4483212232956,0,,2021-07-12T13:52:36.000+0200
1525607,envases,Av. Monforte De Lemos CV Av. Betanzos,-3.71203064934272,40.4779942377704,0,,2021-07-12T13:52:38.000+0200
1523159,envases,Plaza Guardia De Cors FTE. Conde Duque,-3.71056955739891,40.4271815515398,4,,2021-07-12T13:52:40.000+0200
1524943,envases,Plaza De La Remonta FTE. 2B Fla. 45,-3.6979510375574,40.4644830650874,2,,2021-07-12T13:53:05.000+0200
1524887,envases,Pza. Goytisolo Frente Al 5,-3.69398822082196,40.4088751659312,6,,2021-07-12T13:53:05.000+0200
1524060,resto,P° Alberto Palacios N°17,-3.71113550100217,40.3460351532527,0,,2021-07-12T13:53:05.000+0200
1523899,envases,Plaza Isabel II (Frente Calle Independencia),-3.70994612999318,40.4179380449031,0,,2021-07-12T13:53:17.000+0200
1525610,resto,Ronda De Valencia 1 (Lidl),-3.69961159181491,40.4057450512778,0,,2021-07-12T13:53:22.000+0200
1523129,envases,Peña Gorbea Esq. Monte Igueldo,-3.66808683245111,40.396002854883,2,,2021-07-12T13:53:28.000+0200
1524277,envases,P°Extremadura N°31 CV Antillon,-3.72853539644465,40.4134847630745,0,,2021-07-12T13:53:37.000+0200
1524054,resto,Av. Complutense FTE. Salida Parking Peatones,-3.72725081997343,40.443442354483,0,,2021-07-12T13:53:37.000+0200
1525171,resto,Parroco Eusebio Cuenca (Entrada Museo Del Ferrocarril),-3.68953388103911,40.3962977975102,2,,2021-07-12T13:53:44.000+0200
1524861,envases,Gran Vía 66 Junto Semáforo,-3.70894510820282,40.4222795813509,0,,2021-07-12T13:54:07.000+0200
1524412,resto,Pz Manuel Becerra 4,-3.66952306037229,40.4282013006287,2,,2021-07-12T13:54:28.000+0200
1524286,envases,Puerta De Toledo (Salida Metro),-3.71082390472015,40.4068216541988,0,,2021-07-12T13:54:29.000+0200
1524467,envases,Av. De La Peseta N°8 (Mcdonalds),-3.76546643036228,40.3682117695777,2,,2021-07-12T13:54:31.000+0200
1524906,envases,Pza. José Luis Hoys Mercado Usera,-3.7067963245738,40.3871325214308,0,,2021-07-12T13:54:35.000+0200
1525702,envases,Gral. Ricardos N°160 CV Oca,-3.73159773342601,40.3887147822827,0,,2021-07-12T13:54:36.000+0200
1525234,envases,Ombu 16 (Salida Cercanías),-3.67760570767326,40.3954632610179,6,,2021-07-12T13:54:38.000+0200
1525617,envases,Av. Andes N°46 (Mcdonalds),-3.61912346066793,40.4557230617617,4,,2021-07-12T13:54:45.000+0200
1523833,resto,Alfonso XII Frente N°30,-3.68872040000661,40.4153620376076,0,,2021-07-12T13:54:58.000+0200
1523875,envases,O'Donnel Zona Comercial,-3.67394225962683,40.4213341735085,0,,2021-07-12T13:55:02.000+0200
1524372,resto,Francos Rodríguez N°94,-3.71184664970834,40.4577513388169,0,,2021-07-12T13:55:14.000+0200
1524131,envases,Fuencarral CV Barceló FTE. Palma,-3.70116234981462,40.4260889686218,4,,2021-07-12T13:55:23.000+0200
1524860,envases,"Pza Santa María De La Cabeza, 2 (Burger King)",-3.69351829883703,40.4071438786159,0,,2021-07-12T13:55:25.000+0200
1524746,resto,Av. Córdoba CV Marcelo Usera,-3.69924129835192,40.3874369473273,0,,2021-07-12T13:55:31.000+0200
1522968,envases,P° Alberto Palacios N°1,-3.709155138,40.34642989,0,,2021-07-12T13:55:35.000+0200
1524452,resto,Carretas 23,-3.70319228440562,40.4154644756082,0,,2021-07-12T13:55:38.000+0200
1524308,resto,Centro Civico El Pozo Del Tío Raimundo,-3.66006681431855,40.3741619556652,2,,2021-07-12T13:55:40.000+0200
1523529,resto,Pza. Puerta Cerrada Fla.6 FTE. Cava Baja,-3.708087559336,40.4137146575264,2,,2021-07-12T13:55:42.000+0200
1524967,resto,C° Viejo De Leganes N°241,-3.73247114713608,40.3794238770338,0,,2021-07-12T13:55:47.000+0200
1523798,resto,San Cipriano (Cercanías Vicalvaro/Metro Puerta De Arganda),-3.595894,40.401429,2,,2021-07-12T13:55:51.000+0200
1524707,envases,Serrano 201 Fla.311,-3.68096393385534,40.4526068265511,6,,2021-07-12T13:56:04.000+0200
1524303,resto,Plaza De Oriente Fla.185 (Frente Palacio),-3.7131339590247,40.4173909034018,0,,2021-07-12T13:56:07.000+0200
1525555,resto,Mateo Inurria CV P°Habana (Pares),-3.679431,40.46754,0,,2021-07-12T13:56:08.000+0200
1524863,envases,Gran Vía CV Caballero De Gracia,-3.69763499216314,40.4190875538753,0,,2021-07-12T13:56:13.000+0200
1525235,envases,Padre Piquer (Carrefour),-3.76812938357315,40.3946534807897,6,,2021-07-12T13:56:23.000+0200
1525659,resto,Gral. Ricardos CV Irlanda,-3.72142636456955,40.394789924669,2,,2021-07-12T13:56:23.000+0200
1524397,resto,P° Extremadura N°2,-3.72507395444693,40.414145564447,4,,2021-07-12T13:56:31.000+0200
1525584,resto,Puerta De Alcala (Tramo Entrada Retiro),-3.68808492112814,40.4196669201532,6,,2021-07-12T13:56:50.000+0200
1524285,envases,Av. De Los Poblados CV Av. De Las Águilas,-3.76240252413869,40.3858440609876,0,,2021-07-12T13:56:55.000+0200
1523329,resto,Gral. Ricardos N°160 CV Oca,-3.73161498066512,40.3887242074666,2,,2021-07-12T13:57:03.000+0200
1523508,resto,Felipe II .Puerta Corte Ingles. Resto,-3.67476916930075,40.4241883238505,0,,2021-07-12T13:57:16.000+0200
1524291,envases,Plaza Cristo Rey,-3.71798186386929,40.4392761715233,2,,2021-07-12T13:57:21.000+0200
1524319,resto,P° De La Florida CV Mozart,-3.72497570069946,40.4245925853371,4,,2021-07-12T13:57:29.000+0200
1524807,resto,Plaza Tirso De Molina FTE.20,-3.70373875094756,40.4124633516047,0,,2021-07-12T13:57:34.000+0200
1523274,resto,Pza. Hidrógeno N°7 CV Isabelita Usera N°37,-3.70767339868947,40.3830485646439,2,,2021-07-12T13:57:34.000+0200
1524139,envases,Gran Via 38 CV Concepción Arenal,-3.70465726750589,40.4203231984102,0,,2021-07-12T13:57:37.000+0200
1524760,resto,María De Maeztu CV María Casares,-3.72395879126702,40.4937809923576,6,,2021-07-12T13:57:38.000+0200
1523885,envases,Pavia N 2-4,-3.71158290994641,40.4191041799278,0,,2021-07-12T13:57:40.000+0200
1524289,resto,Juan José Martinez Seco (Media Markt),-3.69198944880875,40.3516092702655,0,,2021-07-12T13:57:50.000+0200
1525178,envases,Av. Pablo Iglesias 96 (Metro Francos Rodriguez),-3.7115666173066,40.4572370071767,0,,2021-07-12T13:57:51.000+0200
1524744,resto,Guatavita N°1 (C.C Colombia),-3.63583300396202,40.4719171564819,2,,2021-07-12T13:57:59.000+0200
1525632,envases,"Gta. Embajadores 6 (Metro Embajadores, Intercambiador)",-3.70255523741128,40.4045580209714,6,,2021-07-12T13:58:08.000+0200
1524454,resto,Bailen Plaza De Armeria Entre Palacio Y Catedral,-3.71352344266644,40.416221503634,0,,2021-07-12T13:58:15.000+0200
1523871,resto,Av. América 1,-3.67711241314541,40.437676198484,2,,2021-07-12T13:58:19.000+0200
1524043,envases,Av. Albufera Esq. Av. Rafael Alberti (Metro Miguel Hernández),-3.64000023223922,40.387623245808,2,,2021-07-12T13:58:27.000+0200
1523359,envases,Marqués De Zafra FTE. 28,-3.6647482853625,40.4261219074163,2,,2021-07-12T13:58:30.000+0200
1525210,envases,Preciados Entrada Principal De El Corte Inglés,-3.70436863552552,40.4174687522307,8,LLENA,2021-07-12T13:58:41.000+0200
1524153,resto,Glorieta Cuatro Caminos CV Raimundo Fernández Villaverde,-3.70342041503255,40.4469886175361,0,,2021-07-12T13:58:45.000+0200
1524784,envases,Glorieta Pilar Miro (Junta Municipal Hortaleza),-3.65747209884183,40.4632603117149,0,,2021-07-12T13:59:12.000+0200
1523360,resto,Roberto Domingo. Entrada a Parking,-3.66172810969328,40.4329108210757,0,,2021-07-12T13:59:16.000+0200
1525075,resto,Gta. Santa M.ª De La Cabeza 2,-3.69931546464411,40.4014074242382,6,,2021-07-12T13:59:20.000+0200
1523888,resto,Plaza Callao 5 Fla.4,-3.70562234398924,40.4197076942235,0,,2021-07-12T13:59:27.000+0200
1525736,envases,Av. Cardenal Herrera Oria CV Ventisquero De La Condesa,-3.71463904079936,40.4834404326564,4,,2021-07-12T13:59:51.000+0200
1525562,resto,Av. Monforte De Lemos FTE. Farolillo 180,-3.70829159180102,40.4787066750297,0,,2021-07-12T13:59:57.000+0200
1525597,resto,Plaza Conde De Casal Fte.5,-3.66955827856408,40.4067421785335,0,,2021-07-12T14:00:02.000+0200
1524436,envases,Villablanca (Centro De Salud),-3.59947140096857,40.4055489438924,4,,2021-07-12T14:00:06.000+0200
1525158,envases,Plaza Manuel Gomez Moreno FTE. N°6 (Entrada Por Orense),-3.69479676795078,40.447768456331,0,,2021-07-12T14:00:07.000+0200
1525083,resto,Fuente De La Mora N°3 (Metro Ligero),-3.6632880555148,40.4855100842615,0,,2021-07-12T14:00:15.000+0200
1525111,resto,Arequina N°4,-3.64057164475643,40.4691001424422,0,,2021-07-12T14:00:18.000+0200
1524077,envases,Mendez Álvaro FTE. Vips,-3.67796419888296,40.3931280562018,6,,2021-07-12T14:00:18.000+0200
1524104,resto,Gran Vía 73,-3.71061962479688,40.4231375427499,6,,2021-07-12T14:00:23.000+0200
1525161,resto,Plaza De La Beata María Ana De Jesús 9,-3.69514560543859,40.3938433530267,0,,2021-07-12T14:00:26.000+0200
1525019,resto,P° De La Florida Estación Príncipe Pio Junto Fla.29,-3.72097559555031,40.4218286539296,2,,2021-07-12T14:00:35.000+0200
1525074,envases,Mayor N°9,-3.705905411041,40.4163545592793,6,,2021-07-12T14:00:35.000+0200
1524738,resto,Paseo Acacias 40 (Cercanias),-3.71127061501859,40.4025417735407,6,,2021-07-12T14:00:46.000+0200
1525080,resto,Plaza  De Jacinto Benanvente,-3.70350342702754,40.4143470512609,0,,2021-07-12T14:01:14.000+0200
1523138,resto,Preciados Fnac FTE. Nº21,-3.70542857791385,40.4192214210498,2,,2021-07-12T14:01:14.000+0200
1524684,resto,Av. Monforte De Lemos,-3.70633090352909,40.4791167388817,0,,2021-07-12T14:01:53.000+0200
1524914,resto,Plaza Nelson Mandela Entre Fla.1 Y 2,-3.70381884276866,40.4096459907782,2,,2021-07-12T14:01:58.000+0200
1524815,resto,Pavía N°2 Al Final De La Calle,-3.71163387502442,40.4194030887618,6,,2021-07-12T14:02:13.000+0200
1524492,resto,Travesía De Las Bringas CV Plaza De San Miguel,-3.70883953307895,40.4156459320373,8,LLENA,2021-07-12T14:02:13.000+0200
1525559,envases,Av. Monforte De Lemos Entrada Vaguada,-3.70608795158177,40.4791670879136,2,,2021-07-12T14:02:14.000+0200
1524710,resto,Glorieta Mar De Cristal N°13 (C.C Gran Via),-3.63881821334486,40.4694936112827,0,,2021-07-12T14:02:21.000+0200
1524996,resto,Glorieta De Bilbao (Metro Bilbao),-3.70191596228809,40.4292745485531,0,,2021-07-12T14:02:22.000+0200
1522996,envases,José Del Hierro N°39,-3.64429644965743,40.4402083463916,2,ERROR,2021-07-12T14:02:22.000+0200
1523582,resto,Puerta Del Sol N°12 (Junto Panel Metro Madrid),-3.70328845023387,40.4171090645211,0,,2021-07-12T14:02:27.000+0200
1523222,resto,Puerta Del Sol CV Preciados,-3.70413805582988,40.4170872076339,0,,2021-07-12T14:02:30.000+0200
1523519,resto,Gran Vía 51,-3.707735496616,40.421287649186,4,,2021-07-12T14:02:31.000+0200
1523864,resto,Plaza De Santa Ana FTE.1,-3.70127189009252,40.4147480330642,6,,2021-07-12T14:02:32.000+0200
1524145,envases,Pendiente reubicar.Gran Vía 23,-3.70179968597482,40.4199502578259,0,,2021-07-12T14:02:32.000+0200
1524880,envases,Gral. Ricardos N°4,-3.71661604231256,40.397452583336,2,,2021-07-12T14:02:32.000+0200
1524031,resto,Hacienda De Pavones Entee Fla.1-2 (Carrefour),-3.65063022150164,40.4054825297782,0,,2021-07-12T14:02:38.000+0200
1524317,resto,Av. Albufera N°9 (Carrefour),-3.66808596294835,40.3978078686139,0,,2021-07-12T14:02:40.000+0200
1523583,resto,Gran Via 28,-3.70172956235781,40.4201050236053,4,,2021-07-12T14:02:58.000+0200
1524799,envases,Plaza Callao (Junto Salida Metro),-3.7057681373235,40.4200053557011,2,,2021-07-12T14:03:09.000+0200
1524745,envases,Finisterre N°46 FTE. Fla.59,-3.70289468114275,40.4804437434587,0,,2021-07-12T14:03:09.000+0200
1523536,resto,Pavia N 2-4,-3.71158460744512,40.4191172803307,2,,2021-07-12T14:03:14.000+0200
1523957,resto,Goya 59,-3.68093507611608,40.425151713115,2,,2021-07-12T14:03:19.000+0200
1523164,envases,Plaza Cibeles CV Paseo Recoletos,-3.69304677937484,40.4198444071696,0,,2021-07-12T14:03:20.000+0200
1525689,resto,Arganda 25 (Centro Polideportivo/Parque),-3.70573811595702,40.3998892971318,0,,2021-07-12T14:03:42.000+0200
1524113,resto,Gran Vía 54 Junto Kiosko,-3.70718527371831,40.4211628950215,0,,2021-07-12T14:03:47.000+0200
1523903,resto,Guareña N°11,-3.7654033155981,40.3869849531423,4,,2021-07-12T14:03:51.000+0200
1524922,envases,Plaza Nelson Mandela Junto Fla. 1 Y 2,-3.70386381153351,40.4096236644057,0,,2021-07-12T14:04:10.000+0200
1524065,envases,Av. Córdoba (Hospital 12 De Octubre),-3.69593196601655,40.376622576864,0,,2021-07-12T14:04:18.000+0200
1523142,resto,Gran Vía 29 CV Chinchilla,-3.70334217212386,40.420048743269,0,,2021-07-12T14:04:23.000+0200
1524020,resto,Cebreros FTE. Fla.23 (Metro Lucero),-3.74556111946019,40.4048399449168,0,,2021-07-12T14:04:29.000+0200
1524435,resto,C° De Vinateros CV Arroyo Belincoso (Metro Vinateros),-3.65290933623696,40.4103014925761,4,,2021-07-12T14:04:29.000+0200
1525007,resto,P° Castellana Salida Boca Metro Nuevos Ministerios Entrada Trabajadores ECI FTE. Local Rolex Ent,-3.69311190891422,40.4470747348127,6,,2021-07-12T14:04:29.000+0200
1524698,resto,Av. Pio XII (Salida Metro Fla.20),-3.67597944053161,40.4625129426441,2,,2021-07-12T14:04:37.000+0200
1525581,envases,C° Viejo De Leganes N°128 CV Ángel Ripoll,-3.73011412824549,40.3825411155407,4,,2021-07-12T14:04:37.000+0200
1525239,resto,Finisterre N°36 FTE. Fla. 59,-3.70291071048168,40.4804841673047,0,,2021-07-12T14:04:45.000+0200
1523259,envases,Bulevar Indalecio Prieto Centro De Salud Valdebernardo,-3.621743,40.400161,0,,2021-07-12T14:05:02.000+0200
1523574,envases,Felipe II 13,-3.67386408616392,40.4241304359349,0,,2021-07-12T14:05:14.000+0200
1525723,resto,Matalpino CV Av América (Edif. UGT),-3.67536595265618,40.438775817554,2,,2021-07-12T14:05:17.000+0200
1524749,resto,Oca N°57 CV Abolengo,-3.73863514962696,40.389092375324,2,,2021-07-12T14:05:22.000+0200
1522987,resto,Virgen De La Alegría N°8-10,-3.6570629208609,40.4335349903157,0,,2021-07-12T14:05:26.000+0200
1524282,envases,C° De Vinateros FTE. N°45,-3.65524562590565,40.410529025317,6,,2021-07-12T14:05:28.000+0200
1523298,resto,Pz Colón Fla.58,-3.68849711368525,40.4243415998891,6,,2021-07-12T14:05:39.000+0200
1524324,resto,Av. Pablo Neruda (C.C Madrid Sur),-3.6634391745252,40.3819733315367,0,,2021-07-12T14:05:45.000+0200
1525735,resto,Gran Via Villaverde Acceso Estacion Villaverde Bajo,-3.68367634035992,40.3527849959508,6,,2021-07-12T14:05:49.000+0200
1523932,resto,Sierra Vieja N°61,-3.62403929338256,40.3785018353466,4,,2021-07-12T14:05:54.000+0200
1524868,resto,Calle Botoneras 7,-3.706776,40.414761,0,,2021-07-12T14:06:08.000+0200
1523541,envases,Gran Vía 29 CV Chinchilla,-3.70335465849152,40.4200498592029,0,,2021-07-12T14:06:14.000+0200
1525536,envases,Guatavita N°1 (C.C Colombia),-3.63582852564343,40.4719386341957,0,,2021-07-12T14:06:18.000+0200
1524840,envases,Plaza Carlos V N.11,-3.69250763207674,40.4090204297013,2,,2021-07-12T14:06:22.000+0200
1523826,envases,P° Federico Garcia Lorca N°3,-3.62115400368012,40.3794529587686,0,,2021-07-12T14:06:38.000+0200
1525741,envases,Alberique CV Amposta (Metro Simancas),-3.62294238699103,40.4275671692854,2,,2021-07-12T14:06:43.000+0200
1524182,resto,Juan José Martínez Seco N°75 CV Diamante,-3.68666478660117,40.3517589972963,0,,2021-07-12T14:06:51.000+0200
1525104,envases,Manizales (C.C Colombia),-3.63704665272068,40.4720296552404,0,,2021-07-12T14:06:52.000+0200
1523853,resto,Plaza Mayor 32,-3.70669626342937,40.4156845525051,0,,2021-07-12T14:06:54.000+0200
1524030,envases,Av. Carabanchel Alto CV Callejon De La Rosa (Metro Carabanchel Alto),-3.75182849719757,40.371962576103,0,,2021-07-12T14:07:04.000+0200
1525090,envases,P° De La Estacion FTE. Fuente De La Capona,-3.68453631657609,40.3536772580684,0,,2021-07-12T14:07:14.000+0200
1524823,envases,Plaza Cibeles,-3.69348583737984,40.4187899895189,0,,2021-07-12T14:07:16.000+0200
1524105,resto,Gran Via 32 Primark,-3.70344848888652,40.4202250825824,2,,2021-07-12T14:07:16.000+0200
1525151,resto,P° Castellana / Plaza Pablo Picasso,-3.69164824847187,40.4494742877195,8,LLENA,2021-07-12T14:07:17.000+0200
1524149,resto,Pendiente Reubicar: Alcala CV Barquillo,-3.6954814190002,40.4191289946138,0,,2021-07-12T14:07:20.000+0200
1525032,envases,Blas Cabrera Junto Fla. 65 (Mercado Las Águilas),-3.76802791499191,40.3776615885428,2,,2021-07-12T14:07:26.000+0200
1524449,envases,Plaza De Oriente (Frente Palacio Fla. 155),-3.71297183843087,40.41876585,0,,2021-07-12T14:07:29.000+0200
1524127,envases,Gran Vía 21 CV Montera,-3.70118987841714,40.419942038901,2,,2021-07-12T14:07:34.000+0200
1524955,envases,Av Betanzos N°39 Junto Fla.57,-3.71124468038385,40.4749492328847,8,LLENA,2021-07-12T14:07:48.000+0200
1523940,resto,Intercambiador Aluche Junto Fla.82,-3.75985455104905,40.3853197427692,0,,2021-07-12T14:07:51.000+0200
1524728,resto,Plaza Mayor De Barajas N°16,-3.57700530590366,40.4736650517637,0,,2021-07-12T14:07:56.000+0200
1524103,envases,Gran Via 2,-3.6972361303695,40.4191203519685,0,,2021-07-12T14:07:56.000+0200
1524699,envases,Antonio Machado Junto Fla.58,-3.71916664329222,40.4659217015011,4,,2021-07-12T14:08:06.000+0200
1525601,envases,Gta. Valle Del Oro FTE. N°3,-3.73103757639442,40.3883715034115,0,,2021-07-12T14:08:09.000+0200
1522846,resto,Alcalá CV Av. Institución Libre Enseñanza,-3.63824331938553,40.4377268200259,2,,2021-07-12T14:08:11.000+0200
1524439,resto,Manuel Machado FTE. N°3,-3.65959820771801,40.4113415348555,0,,2021-07-12T14:08:19.000+0200
1524073,resto,Alcala Farola 151 (Metro Banco De España),-3.69582401782188,40.4190840276445,0,,2021-07-12T14:08:28.000+0200
1524163,resto,Plaza Mayor CV Callejón Arcos Del Triunfo,-3.70766071948829,40.4157620806886,2,,2021-07-12T14:08:35.000+0200
1525077,envases,Arequina N°1,-3.6415502054428,40.4691114006121,6,,2021-07-12T14:08:43.000+0200
1524972,envases,Senda Del Infante Fla.23,-3.72016989840325,40.4890119240213,0,,2021-07-12T14:08:47.000+0200
1524029,resto,La Rioja SN (Metro Alameda De Osuna),-3.58816031536925,40.4573806885251,0,,2021-07-12T14:08:51.000+0200
1524128,envases,Plaza Pedro Zerolo Frente N°2 Fla.18,-3.69962309511914,40.4210943388534,2,,2021-07-12T14:08:57.000+0200
1524448,resto,Pz. Juan Malasaña CV Real De Arganda,-3.62142064585166,40.3798078848294,0,,2021-07-12T14:08:58.000+0200
1525531,envases,Gral. Ricardos N°1,-3.71650219393031,40.3973007356077,0,,2021-07-12T14:09:19.000+0200
1523211,resto,Plaza Daoiz Y Velarde (Zona Próxima A La Junta De Distrito),-3.67777099422959,40.4020170219357,0,,2021-07-12T14:09:35.000+0200
1525604,resto,Gral. Ricardos N° 126 CV Blasa Pérez,-3.72695325649676,40.3917662972497,0,,2021-07-12T14:09:36.000+0200
1525041,resto,Fuencarral 129 (FTE. Local Natura),-3.7034074702675,40.4311667021766,2,,2021-07-12T14:09:56.000+0200
1523240,resto,Plaza Isabel II ( Frente Calle Caños Del Peral),-3.70967387397242,40.4183452744772,0,,2021-07-12T14:10:15.000+0200
1524287,resto,Martinez De La Riva FTE. N°116,-3.66332855341533,40.3833919167359,2,,2021-07-12T14:10:19.000+0200
1525082,envases,Felipe V (Local Mi Favorita Fitnest Ballet),-3.7106500621045,40.4185917430472,0,,2021-07-12T14:10:21.000+0200
1524335,envases,Sierra De Guadalupe (Metro),-3.62501564553889,40.3821991125399,2,,2021-07-12T14:10:24.000+0200
1525663,resto,Ronda De Atocha 27 (Colegio Salesianos),-3.69746933666316,40.4063396051991,0,,2021-07-12T14:10:25.000+0200
1524926,resto,C° Viejo De Leganes N°145 CV Pelicano,-3.72918628682778,40.3836494128011,2,,2021-07-12T14:10:33.000+0200
1524831,envases,Paseo Infanta Isabel 13 Boca De Metro (Frente Hotel Only You),-3.68821237156725,40.4070441717591,0,,2021-07-12T14:10:38.000+0200
1525168,envases,C° Viejo De Leganes N°179 CV Carrero Juan Ramon,-3.7313157249693,40.3809531566211,0,,2021-07-12T14:10:48.000+0200
1524022,envases,Av. Pablo Neruda Esq. Romeo Y Julieta,-3.66209399562324,40.3813037507794,0,,2021-07-12T14:11:00.000+0200
1525708,resto,C° Viejo De Leganes N°179 CV Carrero Juan Ramon,-3.7313048941129,40.3809603765311,2,,2021-07-12T14:11:05.000+0200
1524964,resto,Padre Piquer (Carrefour),-3.76814201635213,40.3946676987445,0,,2021-07-12T14:11:14.000+0200
1525727,resto,Gta. Santa M.ª De La Cabeza 5 (Cines),-3.69867558144878,40.4007378637758,0,,2021-07-12T14:11:15.000+0200
1523851,resto,Fernández De Los Ríos CV Isaac Peral,-3.71876381502509,40.4356589099644,0,,2021-07-12T14:11:41.000+0200
1524279,envases,Av. Albufera Esq. Payaso Fofo,-3.65873328531235,40.3927154611884,0,,2021-07-12T14:11:43.000+0200
1524482,envases,Pz Independendia 5,-3.6882594355716,40.4204540969079,2,,2021-07-12T14:11:46.000+0200
1525629,envases,Camino De Ganapanes Junto Fla.57,-3.71586572737679,40.4761172822123,0,,2021-07-12T14:11:46.000+0200
1525565,resto,Paseo De Santa M.ª De La Cabeza 41 (Mercadona),-3.69735554389464,40.4029644649893,0,,2021-07-12T14:11:49.000+0200
1525010,resto,Reina Victoria FTE.2 Boca Metro Mediana,-3.70455177179707,40.4468720808904,0,,2021-07-12T14:12:13.000+0200
1523867,envases,Plaza Callao 5 Fla.4,-3.70561798958344,40.4197387082842,2,,2021-07-12T14:12:13.000+0200
1524969,envases,P° Alberto Palacios N°3-5,-3.70973332825626,40.3463083537883,0,,2021-07-12T14:12:14.000+0200
1524423,resto,Sierra Guadalupe (Metro),-3.62499852476158,40.3822015879859,0,,2021-07-12T14:12:16.000+0200
1523955,resto,Higueras CV Cebreros (Metro Lucero),-3.74502355118979,40.4048672461501,6,,2021-07-12T14:12:26.000+0200
1523563,resto,P°Castellana 216,-3.68842758584747,40.4663749775826,4,,2021-07-12T14:12:28.000+0200
1524338,envases,Av. Albufera (Metro Alto Del Arenal),-3.64566226629037,40.3896882018639,0,,2021-07-12T14:12:43.000+0200
1524175,envases,Sevilla 3 CV Plaza Canalejas,-3.70028157360144,40.4167359876183,2,,2021-07-12T14:12:45.000+0200
1525737,resto,Castrogeriz N°7 FTE. Avda. Plaza De Toros,-3.73968286928342,40.386554235026,0,,2021-07-12T14:12:49.000+0200
1523144,envases,Gran Vía 61,-3.70949321138065,40.4224240050095,0,,2021-07-12T14:12:59.000+0200
1525738,envases,Paseo Infanta Isabel Cv Alfonso XII,-3.68921525113885,40.4075399568316,0,,2021-07-12T14:13:01.000+0200
1525012,envases,Golondrina Estrada Estacion Aravaca,-3.78517396103422,40.4487489869679,0,,2021-07-12T14:13:02.000+0200
1525170,resto,Plaza De La Remonta 6 Fla.64,-3.69714052196201,40.464268662758,6,,2021-07-12T14:13:08.000+0200
1525072,resto,Glorieta Pilar Miro (Junta Municipal Hortaleza),-3.65748318436235,40.4632769341995,4,,2021-07-12T14:13:12.000+0200
1525657,resto,P° Castellana frente 114,-3.69056233294716,40.4470256352577,2,,2021-07-12T14:13:17.000+0200
1524931,envases,Glorieta Pradera Navarrulaque CV Mirador De La Reina,-3.71648935495155,40.4907986770193,8,LLENA,2021-07-12T14:13:21.000+0200
1524727,envases,Bustamante Con Juanmartin El Empecinado,-3.68825510627438,40.4005045606781,6,,2021-07-12T14:13:23.000+0200
1525626,envases,Plaza Arturo Barea (Al lado estatua),-3.70347478140726,40.4084985651001,2,,2021-07-12T14:13:34.000+0200
1523861,resto,Pz Manuel Becerra 8,-3.66875390622352,40.4286455347842,6,,2021-07-12T14:13:44.000+0200
1524176,resto,Carretas 1,-3.70325899588919,40.4165551839678,0,,2021-07-12T14:13:46.000+0200
1525612,resto,Glorieta Pintor Sorolla 2 CV Sta. Engracia (Al Lado De Fla.4),-3.69904967268559,40.4350488832094,0,,2021-07-12T14:14:00.000+0200
1523933,resto,Fuente Carrantona N°10,-3.63695842080607,40.3994401614411,4,,2021-07-12T14:14:26.000+0200
1525197,envases,Sinfonía CV Danza,-3.77359860712065,40.3732456772266,0,,2021-07-12T14:14:31.000+0200
1524162,resto,Ribera De Curtidores 43,-3.70683183844684,40.4051165696106,8,LLENA,2021-07-12T14:14:34.000+0200
1523521,resto,Plaza De Oriente (Frente Palacio Fla. 155),-3.71297325939029,40.418752727651,2,,2021-07-12T14:14:39.000+0200
1524779,resto,Arroyo Bueno N°53 CV Vado De Santiago,-3.71137937757395,40.3491580552881,0,,2021-07-12T14:14:39.000+0200
1523580,resto,Sevilla 2 CV Plaza Canalejas,-3.69845663579228,40.4177398152262,0,,2021-07-12T14:14:42.000+0200
1523891,resto,Arenal 24 (Burger King),-3.70792249507318,40.4176660444124,2,,2021-07-12T14:14:50.000+0200
1524450,resto,Gran Vía 13,-3.69980274252189,40.4197108867721,2,,2021-07-12T14:15:05.000+0200
1524674,envases,Blas Cabrera N°90,-3.76455178861467,40.3782745783256,0,,2021-07-12T14:15:10.000+0200
1523135,resto,Gabriel Lobo 12,-3.68078451750728,40.4427679632278,0,,2021-07-12T14:15:36.000+0200
1524719,envases,Aquitania Junto Fla.7 (C.C Las Rosas),-3.62053657763099,40.4179530473519,8,LLENA,2021-07-12T14:15:59.000+0200
1523893,envases,Doctor Esquerdo (Salida Metro Pacífico),-3.67436840738173,40.4015342547449,0,,2021-07-12T14:16:08.000+0200
1525572,resto,Orense 18,-3.6950462851071,40.4504854909449,4,,2021-07-12T14:16:19.000+0200
1524963,resto,Avenida Ciudad De Barcelona Salida Ave,-3.68940047848333,40.4068145321083,0,,2021-07-12T14:16:29.000+0200
1524457,resto,Marques Viudo De Pontejos FTE.1 CV Plaza Marques De Pontejos,-3.70444848834028,40.4157533395194,6,,2021-07-12T14:16:30.000+0200
1523797,resto,Bulevar Indalecio Prieto CV Parra,-3.62113384639494,40.4008144753339,0,,2021-07-12T14:16:36.000+0200
1525088,envases,Mayor CV Esparteros,-3.70513933729958,40.4164605389433,2,,2021-07-12T14:16:44.000+0200
1523550,resto,Doctor Esquerdo (Salida Metro Pacífico),-3.67435758970013,40.4015438521403,6,,2021-07-12T14:16:47.000+0200
1525159,envases,Intermedia Sur CV Transversal Sexta,-3.699344,40.333152,0,,2021-07-12T14:17:08.000+0200
1524905,resto,Plaza De Las Provincias 4 CV Gerona,-3.70629776463148,40.4150040723442,2,,2021-07-12T14:17:09.000+0200
1525728,resto,Tomas Bretón 58,-3.69082332912669,40.3962489835261,4,,2021-07-12T14:17:10.000+0200
1523866,resto,Felipe II FTE. Wizink Center,-3.67268892394262,40.423886996722,0,,2021-07-12T14:17:11.000+0200
1523511,resto,Plaza Daoiz Y Velarde (Zona Área Recreativa Junto A Las Vias Del Tren),-3.67876000604443,40.4007592059565,0,,2021-07-12T14:17:13.000+0200
1525669,resto,La Mancha Esq. Entrevías (Impares),-3.66885597389319,40.3816724157548,0,,2021-07-12T14:17:17.000+0200
1524935,envases,Plaza De Legazpi Con Maestro Arbos (Parada Bus,-3.69532812727828,40.3905447060258,4,,2021-07-12T14:17:17.000+0200
1525648,resto,Gral. Ricardos N°12 CV Vicente Parra,-3.71751164818484,40.3969416944275,2,,2021-07-12T14:17:18.000+0200
1523178,resto,Plaza Cibeles,-3.69345535197372,40.4187824254974,0,,2021-07-12T14:17:23.000+0200
1523917,envases,Av. Rafael Alberti Esq. Torremolinos,-3.64202583500325,40.3850933309559,6,,2021-07-12T14:17:24.000+0200
1524975,resto,Av. Real De Pinto N°27,-3.70613698948725,40.3463671711505,0,,2021-07-12T14:17:49.000+0200
1524028,envases,Paseo Artilleros CV San Cipriano (Metro Vicalvaro),-3.60885335894082,40.4044689889183,0,,2021-07-12T14:17:54.000+0200
1523578,envases,Gran Vía 35 CV Abada,-3.70476071702486,40.4201497529004,6,,2021-07-12T14:17:57.000+0200
1525578,resto,Carmen CV Galdo FTE. Banco Santader,-3.70404711519919,40.4181881887912,0,,2021-07-12T14:18:05.000+0200
1525697,resto,Gral. Ricardos N°92,-3.72438017185874,40.3931767928428,0,,2021-07-12T14:18:16.000+0200
1525024,resto,Plaza Nelson Mandel Junto Fla.17,-3.7037394403217,40.4098079620147,0,,2021-07-12T14:18:28.000+0200
1523565,resto,P°Castellana 136,-3.69045036903102,40.4513287657271,4,,2021-07-12T14:18:31.000+0200
1524892,resto,Av. Monforte De Lemos CV Pz Arteijo,-3.70675674735313,40.4787214338629,8,LLENA,2021-07-12T14:18:35.000+0200
1523809,resto,Fuente De Lima FTE. N° 1 (Metro Aviación Española),-3.78386218049383,40.3837157662748,6,,2021-07-12T14:18:49.000+0200
1524185,resto,Blas Cabrera N°88,-3.76506796268759,40.3781662834693,4,,2021-07-12T14:18:56.000+0200
1525661,resto,Av. Monforte De Lemos FTE. Farolillo 178,-3.707889,40.478801,2,,2021-07-12T14:19:37.000+0200
1523910,resto,Puerta Del Sol (Apple),-3.70241687069868,40.4168993712303,0,,2021-07-12T14:19:40.000+0200
1524447,envases,Arenal 16 (Al Lado Del Hotel Frente Joy Eslava),-3.70649114545194,40.417269153336,6,,2021-07-12T14:19:48.000+0200
1525651,resto,Linneo 33 (Colegio),-3.72053240851532,40.4103475823128,0,,2021-07-12T14:19:50.000+0200
1523848,resto,Puerta Del Sol (Junto Panel Plano Metro Madrid),-3.70295722379954,40.4170467200885,0,,2021-07-12T14:19:50.000+0200
1524826,resto,Sevilla 3 CV Plaza Canalejas,-3.70042109836241,40.4168078427194,4,,2021-07-12T14:19:56.000+0200
1523530,envases,Av. Marqués De Corbera N°1-3,-3.65619895887839,40.4228384094205,0,,2021-07-12T14:20:00.000+0200
1525014,resto,Plaza De Castilla 3 (Esquina Bravo Murillo),-3.69026389472871,40.4658825324543,0,ERROR,2021-07-12T14:20:02.000+0200
1524313,resto,Blas Cabrera N°90,-3.76457042096384,40.3782685,6,,2021-07-12T14:20:04.000+0200
1525067,resto,Sinfonía CV Danza,-3.77357975893457,40.3732326932882,2,,2021-07-12T14:20:06.000+0200
1524140,resto,Bravo Murillo 138 (Metro Alvarado),-3.70338506461711,40.4501817109633,6,,2021-07-12T14:20:11.000+0200
1523542,envases,Bailen Entre Flas. 305-307,-3.71361772229366,40.4134535979978,0,,2021-07-12T14:20:14.000+0200
1524855,envases,Gran Vía 7,-3.69872670743345,40.4194039451764,4,,2021-07-12T14:20:20.000+0200
1525095,resto,Av. Monforte De Lemos CV Pz Mondariz,-3.70534873649059,40.478999384789,6,,2021-07-12T14:20:25.000+0200
1523859,envases,Preciados Stradivarius,-3.70462159979362,40.4180255794458,0,,2021-07-12T14:20:29.000+0200
1525546,resto,Ginzo De Limia 54 CV Av. Monforte De Lemos,-3.70393,40.478995,6,,2021-07-12T14:20:29.000+0200
1523119,envases,Pendiente Reubicar. Doctor Esquerdo (Salida Metro Conde De Casal),-3.67062426151177,40.4069290766972,0,,2021-07-12T14:20:40.000+0200
1524999,envases,Transversal Sexta Cercanias San Cristóbal Industrial,-3.69915004127758,40.3317777442977,0,,2021-07-12T14:20:44.000+0200
1525645,resto,Real N°9 Y 11,-3.73947627676119,40.3627165789295,6,,2021-07-12T14:20:45.000+0200
1524983,resto,Gran Via De Villaverde Acceso Estacion*,-3.68349495030286,40.3528718801689,2,,2021-07-12T14:21:06.000+0200
1524968,envases,Plaza Olavide FTE. Murillo,-3.700819,40.433085,0,,2021-07-12T14:21:06.000+0200
1524144,resto,Gta. Puerta De Toledo 4 (Hotel),-3.71200312384634,40.4062921598488,6,,2021-07-12T14:21:29.000+0200
1525121,envases,Arturo Soria N°126-128 (Arturosoriaplaza),-3.65117317329059,40.4496875997185,0,,2021-07-12T14:21:29.000+0200
1524466,resto,Bulevar Indalecio Prieto CV Parra (Metro Valdebernardo),-3.62125562226594,40.4010033228383,2,,2021-07-12T14:21:29.000+0200
1524453,resto,Plaza Pedro Zerolo CV Infantas,-3.69912853250998,40.4206206011449,6,,2021-07-12T14:21:30.000+0200
1523282,resto,Plaza Don Antonio De San Andrés N°17 (Junta Municipal Vivalcaro),-3.60580877342999,40.4022193122672,4,,2021-07-12T14:21:31.000+0200
1525614,envases,P° Alberto Palacios N°11,-3.71022143845343,40.3462123948646,0,,2021-07-12T14:21:38.000+0200
1524694,resto,Padre Piquer (Metro Campamento),-3.76834150151528,40.3945269303033,8,LLENA,2021-07-12T14:21:44.000+0200
1522416,resto,Peña Gorbea N°2,-3.66887580360043,40.398386107057,0,,2021-07-12T14:21:50.000+0200
1523247,resto,Plaza Cristo Rey,-3.71798315627412,40.4392511355841,2,,2021-07-12T14:22:02.000+0200
1524896,envases,Cmo. De Perales FTE. Calle Torrox (Caja Magica),-3.68613516925793,40.3688881733474,0,,2021-07-12T14:22:15.000+0200
1523557,resto,Goya 39,-3.68335986882441,40.4252397270114,0,,2021-07-12T14:22:26.000+0200
1523943,envases,Plaza Cardenal Cisneros CV Av. Complutense,-3.7262568179772,40.4402235449418,0,,2021-07-12T14:22:28.000+0200
1524886,envases,Ombu 16 (Salida Cercanías),-3.6776120732449,40.3954763337328,4,,2021-07-12T14:22:32.000+0200
1524109,envases,Princesa  Cv Alberto Aguilera,-3.71590872911543,40.4302874223885,0,,2021-07-12T14:22:38.000+0200
1523202,envases,Gran Via 16,-3.69933503546156,40.4197214636817,6,,2021-07-12T14:22:45.000+0200
1523857,resto,Francos Rodríguez Junto Fla. 103,-3.71214954874972,40.4574753560134,4,,2021-07-12T14:22:50.000+0200
1525579,resto,Bravo Murillo 359 CV Nardo,-3.69288235540422,40.4653525975418,4,,2021-07-12T14:23:01.000+0200
1523799,envases,Doctor Arce (Plaza Iglesia Santa Gema),-3.68068308839632,40.4475269272924,2,,2021-07-12T14:23:07.000+0200
1523818,resto,Virgen De Las Viñas N°16,-3.60664125912518,40.381153280368,6,,2021-07-12T14:23:09.000+0200
1525606,resto,Av. Europa N°27 Bankinter,-3.78678120372757,40.4452674966873,4,,2021-07-12T14:23:16.000+0200
1525544,resto,Mendez Álvaro 44,-3.68278223004728,40.3976661989804,0,,2021-07-12T14:23:25.000+0200
1523959,envases,Av. De Portugal N°155,-3.73816968828044,40.411106153408,4,,2021-07-12T14:23:27.000+0200
1523589,envases,Felipe II 13,-3.67387963236483,40.4241255777361,4,,2021-07-12T14:23:33.000+0200
1524406,resto,P° Pintor Rosales CV Fdo. Y Jacinto Alcántara,-3.7217240758336,40.4287514870732,6,,2021-07-12T14:23:44.000+0200
1524775,resto,Boltaña (Centro Cultural Buero Vallejo),-3.61130751124383,40.4465329465028,6,,2021-07-12T14:23:48.000+0200
1524805,envases,Carmen CV Galdo FTE. Banco Santander,-3.70405967694757,40.4181964546662,2,,2021-07-12T14:23:52.000+0200
1524066,envases,Blas Cabrera CV José de Cadalso,-3.76848497050701,40.3775632062811,0,,2021-07-12T14:24:00.000+0200
1524110,resto,Gran Vía 56 CV San Bernardo,-3.70782235649831,40.4216148687938,0,,2021-07-12T14:24:04.000+0200
1523927,resto,P° Extremadura CV Pz Puerta De Ángel,-3.72847439911704,40.4138289873157,2,,2021-07-12T14:24:07.000+0200
1525023,envases,Plaza Andrés Segovia,-3.6778589222932,40.445455002038,2,,2021-07-12T14:24:09.000+0200
1521210,resto,Manuel Machado CV Alcalde Luis Marichalar,-3.65939877040543,40.4113557824348,0,,2021-07-12T14:24:16.000+0200
1523887,envases,Fernández De Los Ríos CV Isaac Peral,-3.71874821873332,40.4356590069327,0,,2021-07-12T14:24:21.000+0200
1523235,resto,Av. Santa Eugenia FTE. Estación Cercanías,-3.60879045797588,40.3866829952168,0,,2021-07-12T14:24:22.000+0200
1525248,resto,Av. Albufera Esq. Av. Rafael Alberti (Metro Miguel Hernández),-3.63998146176256,40.387616198265,4,,2021-07-12T14:24:24.000+0200
1524708,envases,Pza. Mercurio FTE. Junta Municipal De Barajas,-3.57796150286256,40.4745195733555,0,,2021-07-12T14:24:29.000+0200
1523906,resto,Plaza De España 19 / Reyes.,-3.71088512902163,40.4236673252547,0,,2021-07-12T14:24:35.000+0200
1525537,envases,Pendiente reubicar.Claudio Moyano,-3.69187159710747,40.4094828578692,6,,2021-07-12T14:24:41.000+0200
1525215,resto,Carmen Gourmet Experience FTE. Fnac,-3.70510759128784,40.4192448323417,0,,2021-07-12T14:24:47.000+0200
1524146,resto,Paseo Acacias C/ Toledo (Parque),-3.71380552470888,40.4010649732947,0,,2021-07-12T14:24:49.000+0200
1523149,resto,Peña Gorbea Esq. Puerto Alto,-3.66613997154261,40.3953836095582,0,,2021-07-12T14:24:49.000+0200
1523880,resto,C° De Vinateros N°45,-3.65565704611506,40.4108294174417,8,LLENA,2021-07-12T14:24:50.000+0200
1524742,envases,Senda Del Infante CV María De Maeztu,-3.72469188087754,40.4931423563396,0,,2021-07-12T14:24:53.000+0200
1525028,envases,Orense Esq. Raimundo Fernández Villaverde,-3.69541009439178,40.4465801012416,2,,2021-07-12T14:24:57.000+0200
1523869,resto,Antonio Machado N°23,-3.71932476278883,40.4655309952763,4,,2021-07-12T14:24:59.000+0200
1524824,resto,Bravo Murillo Esq. Marques De Viana,-3.69850850595192,40.4608309579029,6,,2021-07-12T14:25:08.000+0200
1524771,envases,Plaza Mayor De Barajas N°10,-3.57769973494232,40.4740227029301,0,,2021-07-12T14:25:24.000+0200
1525543,envases,Ancora 1 Esquina Paseo De Las Delicias,-3.69343158694691,40.4030638379128,2,,2021-07-12T14:25:27.000+0200
1525734,envases,Hacienda De Pavones N°356,-3.63550077488472,40.4008616024965,0,,2021-07-12T14:25:35.000+0200
1523168,resto,Doctor Esquerdo 40,-3.66918159547839,40.4215373300049,2,,2021-07-12T14:25:43.000+0200
1524166,resto,"Pza Santa María De La Cabeza, 2 (Burger King).Resto",-3.69350425590818,40.4071427709475,4,,2021-07-12T14:25:45.000+0200
1524686,resto,Puerto Balbaran Jto. Canchas De Futbol,-3.65985707005592,40.3772619211225,0,,2021-07-12T14:25:47.000+0200
